{"00570": {"postal_code": "00570", "country_code": "FI", "place_name": "Helsinki                      ", "state_name": "Uusimaa", "state_code": 1, "county_name": "Helsinki", "county_code": 11, "community_name": "Helsinki", "community_code": 91, "latitude": 60.1838, "longitude": 25.0055, "accuracy": 6.0}, "00612": {"postal_code": "00612", "country_code": "PR", "place_name": "Arecibo", "state_name": "Arecibo", "state_code": 13, "county_name": null, "county_code": null, "community_name": null, "community_code": null, "latitude": 18.4724, "longitude": -66.7157, "accuracy": 4}, "00622": {"postal_code": "00622", "country_code": "PR", "place_name": "Boqueron", "state_name": "Cabo Rojo", "state_code": 23, "county_name": null, "county_code": null, "community_name": null, "community_code": null, "latitude": 18.0269, "longitude": -67.1691, "accuracy": 4}, "00640": {"postal_code": "00640", "country_code": "FI", "place_name": "Helsinki                      ", "state_name": "Uusimaa", "state_code": 1, "county_name": "Helsinki", "county_code": 11, "community_name": "Helsinki", "community_code": 91, "latitude": 60.233, "longitude": 24.9628, "accuracy": 6.0}, "00646": {"postal_code": "00646", "country_code": "PR", "place_name": "Dorado", "state_name": "Dorado", "state_code": 51, "county_name": null, "county_code": null, "community_name": null, "community_code": null, "latitude": 18.4588, "longitude": -66.2677, "accuracy": 4}, "00677": {"postal_code": "00677", "country_code": "PR", "place_name": "Rincon", "state_name": "Rincon", "state_code": 117, "county_name": null, "county_code": null, "community_name": null, "community_code": null, "latitude": 18.3402, "longitude": -67.2499, "accuracy": 4}, "00678": {"postal_code": "00678", "country_code": "PR", "place_name": "Quebradillas", "state_name": "Quebradillas", "state_code": 115, "county_name": null, "county_code": null, "community_name": null, "community_code": null, "latitude": 18.4738, "longitude": -66.9385, "accuracy": 4}, "00683": {"postal_code": "00683", "country_code": "PR", "place_name": "San German", "state_name": "San German", "state_code": 125, "county_name": null, "county_code": null, "community_name": null, "community_code": null, "latitude": 18.0816, "longitude": -67.0449, "accuracy": 4}, "00692": {"postal_code": "00692", "country_code": "PR", "place_name": "Vega Alta", "state_name": "Vega Alta", "state_code": 143, "county_name": null, "county_code": null, "community_name": null, "community_code": null, "latitude": 18.4122, "longitude": -66.3313, "accuracy": 4}, "00719": {"postal_code": "00719", "country_code": "PR", "place_name": "Naranjito", "state_name": "Naranjito", "state_code": 105, "county_name": null, "county_code": null, "community_name": null, "community_code": null, "latitude": 18.3008, "longitude": -66.2449, "accuracy": 4}, "00785": {"postal_code": "00785", "country_code": "PR", "place_name": "Guayama", "state_name": "Guayanilla", "state_code": 59, "county_name": null, "county_code": null, "community_name": null, "community_code": null, "latitude": 17.9841, "longitude": -66.1138, "accuracy": 4}, "00802": {"postal_code": "00802", "country_code": "VI", "place_name": "St Thomas", "state_name": "Vi", "state_code": 78, "county_name": "St. Thomas", "county_code": 30, "community_name": null, "community_code": null, "latitude": 18.3387, "longitude": -64.916, "accuracy": 6.0}, "00823": {"postal_code": "00823", "country_code": "VI", "place_name": "Christiansted", "state_name": "Vi", "state_code": 78, "county_name": "St. Croix", "county_code": 10, "community_name": null, "community_code": null, "latitude": 17.7237, "longitude": -64.7445, "accuracy": 6.0}, "00830": {"postal_code": "00830", "country_code": "FI", "place_name": "Helsinki                      ", "state_name": "Uusimaa", "state_code": 1, "county_name": "Helsinki", "county_code": 11, "community_name": "Helsinki", "community_code": 91, "latitude": 60.1901, "longitude": 25.064, "accuracy": 6.0}, "00901": {"postal_code": "00901", "country_code": "PR", "place_name": "San Juan", "state_name": "San Juan", "state_code": 127, "county_name": null, "county_code": null, "community_name": null, "community_code": null, "latitude": 18.4663, "longitude": -66.1057, "accuracy": 4}, "00907": {"postal_code": "00907", "country_code": "PR", "place_name": "San Juan", "state_name": "San Juan", "state_code": 127, "county_name": null, "county_code": null, "community_name": null, "community_code": null, "latitude": 18.4663, "longitude": -66.1057, "accuracy": 4}, "00926": {"postal_code": "00926", "country_code": "PR", "place_name": "San Juan", "state_name": "San Juan", "state_code": 127, "county_name": null, "county_code": null, "community_name": null, "community_code": null, "latitude": 18.4663, "longitude": -66.1057, "accuracy": 4}, "00955": {"postal_code": "00955", "country_code": "PR", "place_name": "San Juan", "state_name": "San Juan", "state_code": 127, "county_name": null, "county_code": null, "community_name": null, "community_code": null, "latitude": 18.4663, "longitude": -66.1057, "accuracy": 4}, "00968": {"postal_code": "00968", "country_code": "PR", "place_name": "Guaynabo", "state_name": "San Juan", "state_code": 127, "county_name": null, "county_code": null, "community_name": null, "community_code": null, "latitude": 18.3575, "longitude": -66.111, "accuracy": 4}, "00969": {"postal_code": "00969", "country_code": "PR", "place_name": "Guaynabo", "state_name": "Guaynabo", "state_code": 61, "county_name": null, "county_code": null, "community_name": null, "community_code": null, "latitude": 18.3575, "longitude": -66.111, "accuracy": 4}, "01001": {"postal_code": "01001", "country_code": "US", "place_name": "Agawam", "state_name": "Massachusetts", "state_code": "MA", "county_name": "Hampden", "county_code": 13.0, "community_name": null, "community_code": null, "latitude": 42.0702, "longitude": -72.6227, "accuracy": 4.0}, "01002": {"postal_code": "01002", "country_code": "US", "place_name": "Amherst", "state_name": "Massachusetts", "state_code": "MA", "county_name": "Hampshire", "county_code": 15.0, "community_name": null, "community_code": null, "latitude": 42.3671, "longitude": -72.4646, "accuracy": 4.0}, "01005": {"postal_code": "01005", "country_code": "US", "place_name": "Barre", "state_name": "Massachusetts", "state_code": "MA", "county_name": "Worcester", "county_code": 27.0, "community_name": null, "community_code": null, "latitude": 42.4097, "longitude": -72.1084, "accuracy": 4.0}, "01007": {"postal_code": "01007", "country_code": "US", "place_name": "Belchertown", "state_name": "Massachusetts", "state_code": "MA", "county_name": "Hampshire", "county_code": 15.0, "community_name": null, "community_code": null, "latitude": 42.2751, "longitude": -72.411, "accuracy": 4.0}, "01013": {"postal_code": "01013", "country_code": "US", "place_name": "Chicopee", "state_name": "Massachusetts", "state_code": "MA", "county_name": "Hampden", "county_code": 13.0, "community_name": null, "community_code": null, "latitude": 42.1487, "longitude": -72.6079, "accuracy": 4.0}, "01020": {"postal_code": "01020", "country_code": "US", "place_name": "Chicopee", "state_name": "Massachusetts", "state_code": "MA", "county_name": "Hampden", "county_code": 13.0, "community_name": null, "community_code": null, "latitude": 42.1764, "longitude": -72.5761, "accuracy": 4.0}, "01022": {"postal_code": "01022", "country_code": "US", "place_name": "Chicopee", "state_name": "Massachusetts", "state_code": "MA", "county_name": "Hampden", "county_code": 13.0, "community_name": null, "community_code": null, "latitude": 42.1934, "longitude": -72.5544, "accuracy": 4.0}, "01026": {"postal_code": "01026", "country_code": "US", "place_name": "Cummington", "state_name": "Massachusetts", "state_code": "MA", "county_name": "Hampshire", "county_code": 15.0, "community_name": null, "community_code": null, "latitude": 42.4633, "longitude": -72.9202, "accuracy": 4.0}, "01027": {"postal_code": "01027", "country_code": "US", "place_name": "Easthampton", "state_name": "Massachusetts", "state_code": "MA", "county_name": "Hampshire", "county_code": 15.0, "community_name": null, "community_code": null, "latitude": 42.2668, "longitude": -72.669, "accuracy": 4.0}, "01028": {"postal_code": "01028", "country_code": "US", "place_name": "East Longmeadow", "state_name": "Massachusetts", "state_code": "MA", "county_name": "Hampden", "county_code": 13.0, "community_name": null, "community_code": null, "latitude": 42.0672, "longitude": -72.5056, "accuracy": 4.0}, "01036": {"postal_code": "01036", "country_code": "US", "place_name": "Hampden", "state_name": "Massachusetts", "state_code": "MA", "county_name": "Hampden", "county_code": 13.0, "community_name": null, "community_code": null, "latitude": 42.0648, "longitude": -72.4318, "accuracy": 4.0}, "01040": {"postal_code": "01040", "country_code": "US", "place_name": "Holyoke", "state_name": "Massachusetts", "state_code": "MA", "county_name": "Hampden", "county_code": 13.0, "community_name": null, "community_code": null, "latitude": 42.202, "longitude": -72.6262, "accuracy": 4.0}, "01053": {"postal_code": "01053", "country_code": "US", "place_name": "Leeds", "state_name": "Massachusetts", "state_code": "MA", "county_name": "Hampshire", "county_code": 15.0, "community_name": null, "community_code": null, "latitude": 42.3543, "longitude": -72.7034, "accuracy": 4.0}, "01054": {"postal_code": "01054", "country_code": "US", "place_name": "Leverett", "state_name": "Massachusetts", "state_code": "MA", "county_name": "Franklin", "county_code": 11.0, "community_name": null, "community_code": null, "latitude": 42.4682, "longitude": -72.4993, "accuracy": 4.0}, "01056": {"postal_code": "01056", "country_code": "US", "place_name": "Ludlow", "state_name": "Massachusetts", "state_code": "MA", "county_name": "Hampden", "county_code": 13.0, "community_name": null, "community_code": null, "latitude": 42.1728, "longitude": -72.471, "accuracy": 4.0}, "01060": {"postal_code": "01060", "country_code": "US", "place_name": "Northampton", "state_name": "Massachusetts", "state_code": "MA", "county_name": "Hampshire", "county_code": 15.0, "community_name": null, "community_code": null, "latitude": 42.3223, "longitude": -72.6313, "accuracy": 4.0}, "01072": {"postal_code": "01072", "country_code": "US", "place_name": "Shutesbury", "state_name": "Massachusetts", "state_code": "MA", "county_name": "Franklin", "county_code": 11.0, "community_name": null, "community_code": null, "latitude": 42.482, "longitude": -72.4213, "accuracy": 4.0}, "01075": {"postal_code": "01075", "country_code": "US", "place_name": "South Hadley", "state_name": "Massachusetts", "state_code": "MA", "county_name": "Hampshire", "county_code": 15.0, "community_name": null, "community_code": null, "latitude": 42.2375, "longitude": -72.5811, "accuracy": 4.0}, "01081": {"postal_code": "01081", "country_code": "US", "place_name": "Wales", "state_name": "Massachusetts", "state_code": "MA", "county_name": "Hampden", "county_code": 13.0, "community_name": null, "community_code": null, "latitude": 42.0627, "longitude": -72.2046, "accuracy": 4.0}, "01082": {"postal_code": "01082", "country_code": "US", "place_name": "Ware", "state_name": "Massachusetts", "state_code": "MA", "county_name": "Hampshire", "county_code": 15.0, "community_name": null, "community_code": null, "latitude": 42.2618, "longitude": -72.2583, "accuracy": 4.0}, "01085": {"postal_code": "01085", "country_code": "US", "place_name": "Westfield", "state_name": "Massachusetts", "state_code": "MA", "county_name": "Hampden", "county_code": 13.0, "community_name": null, "community_code": null, "latitude": 42.1251, "longitude": -72.7495, "accuracy": 4.0}, "01089": {"postal_code": "01089", "country_code": "US", "place_name": "West Springfield", "state_name": "Massachusetts", "state_code": "MA", "county_name": "Hampden", "county_code": 13.0, "community_name": null, "community_code": null, "latitude": 42.1151, "longitude": -72.6411, "accuracy": 4.0}, "01095": {"postal_code": "01095", "country_code": "US", "place_name": "Wilbraham", "state_name": "Massachusetts", "state_code": "MA", "county_name": "Hampden", "county_code": 13.0, "community_name": null, "community_code": null, "latitude": 42.1245, "longitude": -72.4464, "accuracy": 4.0}, "01104": {"postal_code": "01104", "country_code": "US", "place_name": "Springfield", "state_name": "Massachusetts", "state_code": "MA", "county_name": "Hampden", "county_code": 13.0, "community_name": null, "community_code": null, "latitude": 42.1288, "longitude": -72.5778, "accuracy": 4.0}, "01107": {"postal_code": "01107", "country_code": "US", "place_name": "Springfield", "state_name": "Massachusetts", "state_code": "MA", "county_name": "Hampden", "county_code": 13.0, "community_name": null, "community_code": null, "latitude": 42.1179, "longitude": -72.6065, "accuracy": 4.0}, "01108": {"postal_code": "01108", "country_code": "US", "place_name": "Springfield", "state_name": "Massachusetts", "state_code": "MA", "county_name": "Hampden", "county_code": 13.0, "community_name": null, "community_code": null, "latitude": 42.0853, "longitude": -72.5584, "accuracy": 4.0}, "01109": {"postal_code": "01109", "country_code": "US", "place_name": "Springfield", "state_name": "Massachusetts", "state_code": "MA", "county_name": "Hampden", "county_code": 13.0, "community_name": null, "community_code": null, "latitude": 42.1145, "longitude": -72.5543, "accuracy": 4.0}, "01118": {"postal_code": "01118", "country_code": "US", "place_name": "Springfield", "state_name": "Massachusetts", "state_code": "MA", "county_name": "Hampden", "county_code": 13.0, "community_name": null, "community_code": null, "latitude": 42.0929, "longitude": -72.5274, "accuracy": 4.0}, "01151": {"postal_code": "01151", "country_code": "US", "place_name": "Indian Orchard", "state_name": "Massachusetts", "state_code": "MA", "county_name": "Hampden", "county_code": 13.0, "community_name": null, "community_code": null, "latitude": 42.1532, "longitude": -72.505, "accuracy": 4.0}, "01201": {"postal_code": "01201", "country_code": "US", "place_name": "Pittsfield", "state_name": "Massachusetts", "state_code": "MA", "county_name": "Berkshire", "county_code": 3.0, "community_name": null, "community_code": null, "latitude": 42.4531, "longitude": -73.2471, "accuracy": 4.0}, "01220": {"postal_code": "01220", "country_code": "US", "place_name": "Adams", "state_name": "Massachusetts", "state_code": "MA", "county_name": "Berkshire", "county_code": 3.0, "community_name": null, "community_code": null, "latitude": 42.6223, "longitude": -73.1172, "accuracy": 4.0}, "01226": {"postal_code": "01226", "country_code": "US", "place_name": "Dalton", "state_name": "Massachusetts", "state_code": "MA", "county_name": "Berkshire", "county_code": 3.0, "community_name": null, "community_code": null, "latitude": 42.475, "longitude": -73.1603, "accuracy": 4.0}, "01230": {"postal_code": "01230", "country_code": "US", "place_name": "Great Barrington", "state_name": "Massachusetts", "state_code": "MA", "county_name": "Berkshire", "county_code": 3.0, "community_name": null, "community_code": null, "latitude": 42.1959, "longitude": -73.3607, "accuracy": 4.0}, "01238": {"postal_code": "01238", "country_code": "US", "place_name": "Lee", "state_name": "Massachusetts", "state_code": "MA", "county_name": "Berkshire", "county_code": 3.0, "community_name": null, "community_code": null, "latitude": 42.299, "longitude": -73.2317, "accuracy": 4.0}, "01240": {"postal_code": "01240", "country_code": "US", "place_name": "Lenox", "state_name": "Massachusetts", "state_code": "MA", "county_name": "Berkshire", "county_code": 3.0, "community_name": null, "community_code": null, "latitude": 42.3642, "longitude": -73.2713, "accuracy": 4.0}, "01301": {"postal_code": "01301", "country_code": "US", "place_name": "Greenfield", "state_name": "Massachusetts", "state_code": "MA", "county_name": "Franklin", "county_code": 11.0, "community_name": null, "community_code": null, "latitude": 42.6013, "longitude": -72.6236, "accuracy": 4.0}, "01340": {"postal_code": "01340", "country_code": "US", "place_name": "Colrain", "state_name": "Massachusetts", "state_code": "MA", "county_name": "Franklin", "county_code": 11.0, "community_name": null, "community_code": null, "latitude": 42.679, "longitude": -72.7265, "accuracy": 4.0}, "01341": {"postal_code": "01341", "country_code": "US", "place_name": "Conway", "state_name": "Massachusetts", "state_code": "MA", "county_name": "Franklin", "county_code": 11.0, "community_name": null, "community_code": null, "latitude": 42.5138, "longitude": -72.7025, "accuracy": 4.0}, "01344": {"postal_code": "01344", "country_code": "US", "place_name": "Erving", "state_name": "Massachusetts", "state_code": "MA", "county_name": "Franklin", "county_code": 11.0, "community_name": null, "community_code": null, "latitude": 42.6076, "longitude": -72.4292, "accuracy": 4.0}, "01364": {"postal_code": "01364", "country_code": "US", "place_name": "Orange", "state_name": "Massachusetts", "state_code": "MA", "county_name": "Franklin", "county_code": 11.0, "community_name": null, "community_code": null, "latitude": 42.6129, "longitude": -72.2924, "accuracy": 4.0}, "01420": {"postal_code": "01420", "country_code": "US", "place_name": "Fitchburg", "state_name": "Massachusetts", "state_code": "MA", "county_name": "Worcester", "county_code": 27.0, "community_name": null, "community_code": null, "latitude": 42.5796, "longitude": -71.8031, "accuracy": 4.0}, "01440": {"postal_code": "01440", "country_code": "US", "place_name": "Gardner", "state_name": "Massachusetts", "state_code": "MA", "county_name": "Worcester", "county_code": 27.0, "community_name": null, "community_code": null, "latitude": 42.574, "longitude": -71.9898, "accuracy": 4.0}, "01450": {"postal_code": "01450", "country_code": "US", "place_name": "Groton", "state_name": "Massachusetts", "state_code": "MA", "county_name": "Middlesex", "county_code": 17.0, "community_name": null, "community_code": null, "latitude": 42.6124, "longitude": -71.5584, "accuracy": 4.0}, "01452": {"postal_code": "01452", "country_code": "US", "place_name": "Hubbardston", "state_name": "Massachusetts", "state_code": "MA", "county_name": "Worcester", "county_code": 27.0, "community_name": null, "community_code": null, "latitude": 42.4865, "longitude": -72.0012, "accuracy": 4.0}, "01453": {"postal_code": "01453", "country_code": "US", "place_name": "Leominster", "state_name": "Massachusetts", "state_code": "MA", "county_name": "Worcester", "county_code": 27.0, "community_name": null, "community_code": null, "latitude": 42.5274, "longitude": -71.7563, "accuracy": 4.0}, "01462": {"postal_code": "01462", "country_code": "US", "place_name": "Lunenburg", "state_name": "Massachusetts", "state_code": "MA", "county_name": "Worcester", "county_code": 27.0, "community_name": null, "community_code": null, "latitude": 42.5884, "longitude": -71.7266, "accuracy": 4.0}, "01463": {"postal_code": "01463", "country_code": "US", "place_name": "Pepperell", "state_name": "Massachusetts", "state_code": "MA", "county_name": "Middlesex", "county_code": 17.0, "community_name": null, "community_code": null, "latitude": 42.6689, "longitude": -71.5934, "accuracy": 4.0}, "01464": {"postal_code": "01464", "country_code": "US", "place_name": "Shirley", "state_name": "Massachusetts", "state_code": "MA", "county_name": "Middlesex", "county_code": 17.0, "community_name": null, "community_code": null, "latitude": 42.5734, "longitude": -71.6483, "accuracy": 4.0}, "01468": {"postal_code": "01468", "country_code": "US", "place_name": "Templeton", "state_name": "Massachusetts", "state_code": "MA", "county_name": "Worcester", "county_code": 27.0, "community_name": null, "community_code": null, "latitude": 42.546, "longitude": -72.065, "accuracy": 4.0}, "01475": {"postal_code": "01475", "country_code": "US", "place_name": "Winchendon", "state_name": "Massachusetts", "state_code": "MA", "county_name": "Worcester", "county_code": 27.0, "community_name": null, "community_code": null, "latitude": 42.6789, "longitude": -72.0475, "accuracy": 4.0}, "01501": {"postal_code": "01501", "country_code": "US", "place_name": "Auburn", "state_name": "Massachusetts", "state_code": "MA", "county_name": "Worcester", "county_code": 27.0, "community_name": null, "community_code": null, "latitude": 42.2055, "longitude": -71.8391, "accuracy": 4.0}, "01503": {"postal_code": "01503", "country_code": "US", "place_name": "Berlin", "state_name": "Massachusetts", "state_code": "MA", "county_name": "Worcester", "county_code": 27.0, "community_name": null, "community_code": null, "latitude": 42.3844, "longitude": -71.6356, "accuracy": 4.0}, "01507": {"postal_code": "01507", "country_code": "US", "place_name": "Charlton", "state_name": "Massachusetts", "state_code": "MA", "county_name": "Worcester", "county_code": 27.0, "community_name": null, "community_code": null, "latitude": 42.1379, "longitude": -71.9664, "accuracy": 4.0}, "01510": {"postal_code": "01510", "country_code": "US", "place_name": "Clinton", "state_name": "Massachusetts", "state_code": "MA", "county_name": "Worcester", "county_code": 27.0, "community_name": null, "community_code": null, "latitude": 42.4181, "longitude": -71.6828, "accuracy": 4.0}, "01516": {"postal_code": "01516", "country_code": "US", "place_name": "Douglas", "state_name": "Massachusetts", "state_code": "MA", "county_name": "Worcester", "county_code": 27.0, "community_name": null, "community_code": null, "latitude": 42.0528, "longitude": -71.7509, "accuracy": 4.0}, "01519": {"postal_code": "01519", "country_code": "US", "place_name": "Grafton", "state_name": "Massachusetts", "state_code": "MA", "county_name": "Worcester", "county_code": 27.0, "community_name": null, "community_code": null, "latitude": 42.2004, "longitude": -71.6868, "accuracy": 4.0}, "01520": {"postal_code": "01520", "country_code": "US", "place_name": "Holden", "state_name": "Massachusetts", "state_code": "MA", "county_name": "Worcester", "county_code": 27.0, "community_name": null, "community_code": null, "latitude": 42.342, "longitude": -71.8414, "accuracy": 4.0}, "01523": {"postal_code": "01523", "country_code": "US", "place_name": "Lancaster", "state_name": "Massachusetts", "state_code": "MA", "county_name": "Worcester", "county_code": 27.0, "community_name": null, "community_code": null, "latitude": 42.451, "longitude": -71.6868, "accuracy": 4.0}, "01527": {"postal_code": "01527", "country_code": "US", "place_name": "Millbury", "state_name": "Massachusetts", "state_code": "MA", "county_name": "Worcester", "county_code": 27.0, "community_name": null, "community_code": null, "latitude": 42.1968, "longitude": -71.7644, "accuracy": 4.0}, "01531": {"postal_code": "01531", "country_code": "US", "place_name": "New Braintree", "state_name": "Massachusetts", "state_code": "MA", "county_name": "Worcester", "county_code": 27.0, "community_name": null, "community_code": null, "latitude": 42.3198, "longitude": -72.1306, "accuracy": 4.0}, "01532": {"postal_code": "01532", "country_code": "US", "place_name": "Northborough", "state_name": "Massachusetts", "state_code": "MA", "county_name": "Worcester", "county_code": 27.0, "community_name": null, "community_code": null, "latitude": 42.3182, "longitude": -71.6464, "accuracy": 4.0}, "01535": {"postal_code": "01535", "country_code": "US", "place_name": "North Brookfield", "state_name": "Massachusetts", "state_code": "MA", "county_name": "Worcester", "county_code": 27.0, "community_name": null, "community_code": null, "latitude": 42.2665, "longitude": -72.0821, "accuracy": 4.0}, "01541": {"postal_code": "01541", "country_code": "US", "place_name": "Princeton", "state_name": "Massachusetts", "state_code": "MA", "county_name": "Worcester", "county_code": 27.0, "community_name": null, "community_code": null, "latitude": 42.4508, "longitude": -71.8762, "accuracy": 4.0}, "01545": {"postal_code": "01545", "country_code": "US", "place_name": "Shrewsbury", "state_name": "Massachusetts", "state_code": "MA", "county_name": "Worcester", "county_code": 27.0, "community_name": null, "community_code": null, "latitude": 42.2848, "longitude": -71.7205, "accuracy": 4.0}, "01550": {"postal_code": "01550", "country_code": "US", "place_name": "Southbridge", "state_name": "Massachusetts", "state_code": "MA", "county_name": "Worcester", "county_code": 27.0, "community_name": null, "community_code": null, "latitude": 42.075, "longitude": -72.0353, "accuracy": 4.0}, "01564": {"postal_code": "01564", "country_code": "US", "place_name": "Sterling", "state_name": "Massachusetts", "state_code": "MA", "county_name": "Worcester", "county_code": 27.0, "community_name": null, "community_code": null, "latitude": 42.4354, "longitude": -71.7752, "accuracy": 4.0}, "01568": {"postal_code": "01568", "country_code": "US", "place_name": "Upton", "state_name": "Massachusetts", "state_code": "MA", "county_name": "Worcester", "county_code": 27.0, "community_name": null, "community_code": null, "latitude": 42.1756, "longitude": -71.6032, "accuracy": 4.0}, "01569": {"postal_code": "01569", "country_code": "US", "place_name": "Uxbridge", "state_name": "Massachusetts", "state_code": "MA", "county_name": "Worcester", "county_code": 27.0, "community_name": null, "community_code": null, "latitude": 42.0744, "longitude": -71.6329, "accuracy": 4.0}, "01570": {"postal_code": "01570", "country_code": "US", "place_name": "Webster", "state_name": "Massachusetts", "state_code": "MA", "county_name": "Worcester", "county_code": 27.0, "community_name": null, "community_code": null, "latitude": 42.0521, "longitude": -71.8486, "accuracy": 4.0}, "01581": {"postal_code": "01581", "country_code": "US", "place_name": "Westborough", "state_name": "Massachusetts", "state_code": "MA", "county_name": "Worcester", "county_code": 27.0, "community_name": null, "community_code": null, "latitude": 42.2679, "longitude": -71.6176, "accuracy": 4.0}, "01583": {"postal_code": "01583", "country_code": "US", "place_name": "West Boylston", "state_name": "Massachusetts", "state_code": "MA", "county_name": "Worcester", "county_code": 27.0, "community_name": null, "community_code": null, "latitude": 42.3584, "longitude": -71.7838, "accuracy": 4.0}, "01585": {"postal_code": "01585", "country_code": "US", "place_name": "West Brookfield", "state_name": "Massachusetts", "state_code": "MA", "county_name": "Worcester", "county_code": 27.0, "community_name": null, "community_code": null, "latitude": 42.2441, "longitude": -72.1511, "accuracy": 4.0}, "01590": {"postal_code": "01590", "country_code": "US", "place_name": "Sutton", "state_name": "Massachusetts", "state_code": "MA", "county_name": "Worcester", "county_code": 27.0, "community_name": null, "community_code": null, "latitude": 42.1266, "longitude": -71.7552, "accuracy": 4.0}, "01602": {"postal_code": "01602", "country_code": "US", "place_name": "Worcester", "state_name": "Massachusetts", "state_code": "MA", "county_name": "Worcester", "county_code": 27.0, "community_name": null, "community_code": null, "latitude": 42.2703, "longitude": -71.8417, "accuracy": 4.0}, "01603": {"postal_code": "01603", "country_code": "US", "place_name": "Worcester", "state_name": "Massachusetts", "state_code": "MA", "county_name": "Worcester", "county_code": 27.0, "community_name": null, "community_code": null, "latitude": 42.245, "longitude": -71.838, "accuracy": 4.0}, "01604": {"postal_code": "01604", "country_code": "US", "place_name": "Worcester", "state_name": "Massachusetts", "state_code": "MA", "county_name": "Worcester", "county_code": 27.0, "community_name": null, "community_code": null, "latitude": 42.2541, "longitude": -71.7746, "accuracy": 4.0}, "01605": {"postal_code": "01605", "country_code": "US", "place_name": "Worcester", "state_name": "Massachusetts", "state_code": "MA", "county_name": "Worcester", "county_code": 27.0, "community_name": null, "community_code": null, "latitude": 42.2894, "longitude": -71.7888, "accuracy": 4.0}, "01606": {"postal_code": "01606", "country_code": "US", "place_name": "Worcester", "state_name": "Massachusetts", "state_code": "MA", "county_name": "Worcester", "county_code": 27.0, "community_name": null, "community_code": null, "latitude": 42.311, "longitude": -71.7958, "accuracy": 4.0}, "01609": {"postal_code": "01609", "country_code": "US", "place_name": "Worcester", "state_name": "Massachusetts", "state_code": "MA", "county_name": "Worcester", "county_code": 27.0, "community_name": null, "community_code": null, "latitude": 42.2826, "longitude": -71.8277, "accuracy": 4.0}, "01610": {"postal_code": "01610", "country_code": "US", "place_name": "Worcester", "state_name": "Massachusetts", "state_code": "MA", "county_name": "Worcester", "county_code": 27.0, "community_name": null, "community_code": null, "latitude": 42.2492, "longitude": -71.8108, "accuracy": 4.0}, "01701": {"postal_code": "01701", "country_code": "US", "place_name": "Framingham", "state_name": "Massachusetts", "state_code": "MA", "county_name": "Middlesex", "county_code": 17.0, "community_name": null, "community_code": null, "latitude": 42.3007, "longitude": -71.4255, "accuracy": 4.0}, "01702": {"postal_code": "01702", "country_code": "US", "place_name": "Framingham", "state_name": "Massachusetts", "state_code": "MA", "county_name": "Middlesex", "county_code": 17.0, "community_name": null, "community_code": null, "latitude": 42.2822, "longitude": -71.4339, "accuracy": 4.0}, "01721": {"postal_code": "01721", "country_code": "US", "place_name": "Ashland", "state_name": "Massachusetts", "state_code": "MA", "county_name": "Middlesex", "county_code": 17.0, "community_name": null, "community_code": null, "latitude": 42.2539, "longitude": -71.4583, "accuracy": 4.0}, "01730": {"postal_code": "01730", "country_code": "US", "place_name": "Bedford", "state_name": "Massachusetts", "state_code": "MA", "county_name": "Middlesex", "county_code": 17.0, "community_name": null, "community_code": null, "latitude": 42.4843, "longitude": -71.2768, "accuracy": 4.0}, "01741": {"postal_code": "01741", "country_code": "US", "place_name": "Carlisle", "state_name": "Massachusetts", "state_code": "MA", "county_name": "Middlesex", "county_code": 17.0, "community_name": null, "community_code": null, "latitude": 42.5286, "longitude": -71.3519, "accuracy": 4.0}, "01747": {"postal_code": "01747", "country_code": "US", "place_name": "Hopedale", "state_name": "Massachusetts", "state_code": "MA", "county_name": "Worcester", "county_code": 27.0, "community_name": null, "community_code": null, "latitude": 42.1268, "longitude": -71.5376, "accuracy": 4.0}, "01748": {"postal_code": "01748", "country_code": "US", "place_name": "Hopkinton", "state_name": "Massachusetts", "state_code": "MA", "county_name": "Middlesex", "county_code": 17.0, "community_name": null, "community_code": null, "latitude": 42.219, "longitude": -71.5302, "accuracy": 4.0}, "01749": {"postal_code": "01749", "country_code": "US", "place_name": "Hudson", "state_name": "Massachusetts", "state_code": "MA", "county_name": "Middlesex", "county_code": 17.0, "community_name": null, "community_code": null, "latitude": 42.3918, "longitude": -71.5609, "accuracy": 4.0}, "01752": {"postal_code": "01752", "country_code": "US", "place_name": "Marlborough", "state_name": "Massachusetts", "state_code": "MA", "county_name": "Middlesex", "county_code": 17.0, "community_name": null, "community_code": null, "latitude": 42.3509, "longitude": -71.5434, "accuracy": 4.0}, "01754": {"postal_code": "01754", "country_code": "US", "place_name": "Maynard", "state_name": "Massachusetts", "state_code": "MA", "county_name": "Middlesex", "county_code": 17.0, "community_name": null, "community_code": null, "latitude": 42.4321, "longitude": -71.455, "accuracy": 4.0}, "01757": {"postal_code": "01757", "country_code": "US", "place_name": "Milford", "state_name": "Massachusetts", "state_code": "MA", "county_name": "Worcester", "county_code": 27.0, "community_name": null, "community_code": null, "latitude": 42.1511, "longitude": -71.5274, "accuracy": 4.0}, "01760": {"postal_code": "01760", "country_code": "US", "place_name": "Natick", "state_name": "Massachusetts", "state_code": "MA", "county_name": "Middlesex", "county_code": 17.0, "community_name": null, "community_code": null, "latitude": 42.2875, "longitude": -71.3574, "accuracy": 4.0}, "01775": {"postal_code": "01775", "country_code": "US", "place_name": "Stow", "state_name": "Massachusetts", "state_code": "MA", "county_name": "Middlesex", "county_code": 17.0, "community_name": null, "community_code": null, "latitude": 42.4308, "longitude": -71.515, "accuracy": 4.0}, "01776": {"postal_code": "01776", "country_code": "US", "place_name": "Sudbury", "state_name": "Massachusetts", "state_code": "MA", "county_name": "Middlesex", "county_code": 17.0, "community_name": null, "community_code": null, "latitude": 42.3837, "longitude": -71.4282, "accuracy": 4.0}, "01780": {"postal_code": "01780", "country_code": "KR", "place_name": "\ub178\uc6d0\uad6c", "state_name": "\uc11c\uc6b8\ud2b9\ubcc4\uc2dc", "state_code": 11, "county_name": "\ub178\uc6d0\uad6c", "county_code": 11110.0, "community_name": null, "community_code": null, "latitude": 37.6367, "longitude": 127.0655, "accuracy": 6}, "01801": {"postal_code": "01801", "country_code": "US", "place_name": "Woburn", "state_name": "Massachusetts", "state_code": "MA", "county_name": "Middlesex", "county_code": 17.0, "community_name": null, "community_code": null, "latitude": 42.4829, "longitude": -71.1574, "accuracy": 4.0}, "01803": {"postal_code": "01803", "country_code": "US", "place_name": "Burlington", "state_name": "Massachusetts", "state_code": "MA", "county_name": "Middlesex", "county_code": 17.0, "community_name": null, "community_code": null, "latitude": 42.5089, "longitude": -71.2004, "accuracy": 4.0}, "01821": {"postal_code": "01821", "country_code": "US", "place_name": "Billerica", "state_name": "Massachusetts", "state_code": "MA", "county_name": "Middlesex", "county_code": 17.0, "community_name": null, "community_code": null, "latitude": 42.5519, "longitude": -71.2518, "accuracy": 4.0}, "01824": {"postal_code": "01824", "country_code": "US", "place_name": "Chelmsford", "state_name": "Massachusetts", "state_code": "MA", "county_name": "Middlesex", "county_code": 17.0, "community_name": null, "community_code": null, "latitude": 42.5911, "longitude": -71.3556, "accuracy": 4.0}, "01826": {"postal_code": "01826", "country_code": "US", "place_name": "Dracut", "state_name": "Massachusetts", "state_code": "MA", "county_name": "Middlesex", "county_code": 17.0, "community_name": null, "community_code": null, "latitude": 42.6764, "longitude": -71.3186, "accuracy": 4.0}, "01827": {"postal_code": "01827", "country_code": "US", "place_name": "Dunstable", "state_name": "Massachusetts", "state_code": "MA", "county_name": "Middlesex", "county_code": 17.0, "community_name": null, "community_code": null, "latitude": 42.6739, "longitude": -71.4952, "accuracy": 4.0}, "01830": {"postal_code": "01830", "country_code": "US", "place_name": "Haverhill", "state_name": "Massachusetts", "state_code": "MA", "county_name": "Essex", "county_code": 9.0, "community_name": null, "community_code": null, "latitude": 42.7856, "longitude": -71.0721, "accuracy": 4.0}, "01832": {"postal_code": "01832", "country_code": "US", "place_name": "Haverhill", "state_name": "Massachusetts", "state_code": "MA", "county_name": "Essex", "county_code": 9.0, "community_name": null, "community_code": null, "latitude": 42.7792, "longitude": -71.1095, "accuracy": 4.0}, "01833": {"postal_code": "01833", "country_code": "US", "place_name": "Georgetown", "state_name": "Massachusetts", "state_code": "MA", "county_name": "Essex", "county_code": 9.0, "community_name": null, "community_code": null, "latitude": 42.7281, "longitude": -70.9822, "accuracy": 4.0}, "01835": {"postal_code": "01835", "country_code": "US", "place_name": "Haverhill", "state_name": "Massachusetts", "state_code": "MA", "county_name": "Essex", "county_code": 9.0, "community_name": null, "community_code": null, "latitude": 42.7528, "longitude": -71.0843, "accuracy": 4.0}, "01840": {"postal_code": "01840", "country_code": "US", "place_name": "Lawrence", "state_name": "Massachusetts", "state_code": "MA", "county_name": "Essex", "county_code": 9.0, "community_name": null, "community_code": null, "latitude": 42.708, "longitude": -71.1638, "accuracy": 4.0}, "01841": {"postal_code": "01841", "country_code": "US", "place_name": "Lawrence", "state_name": "Massachusetts", "state_code": "MA", "county_name": "Essex", "county_code": 9.0, "community_name": null, "community_code": null, "latitude": 42.7115, "longitude": -71.167, "accuracy": 4.0}, "01844": {"postal_code": "01844", "country_code": "US", "place_name": "Methuen", "state_name": "Massachusetts", "state_code": "MA", "county_name": "Essex", "county_code": 9.0, "community_name": null, "community_code": null, "latitude": 42.728, "longitude": -71.181, "accuracy": 4.0}, "01845": {"postal_code": "01845", "country_code": "US", "place_name": "North Andover", "state_name": "Massachusetts", "state_code": "MA", "county_name": "Essex", "county_code": 9.0, "community_name": null, "community_code": null, "latitude": 42.6826, "longitude": -71.109, "accuracy": 4.0}, "01850": {"postal_code": "01850", "country_code": "US", "place_name": "Lowell", "state_name": "Massachusetts", "state_code": "MA", "county_name": "Middlesex", "county_code": 17.0, "community_name": null, "community_code": null, "latitude": 42.656, "longitude": -71.3051, "accuracy": 4.0}, "01852": {"postal_code": "01852", "country_code": "US", "place_name": "Lowell", "state_name": "Massachusetts", "state_code": "MA", "county_name": "Middlesex", "county_code": 17.0, "community_name": null, "community_code": null, "latitude": 42.6344, "longitude": -71.2983, "accuracy": 4.0}, "01863": {"postal_code": "01863", "country_code": "US", "place_name": "North Chelmsford", "state_name": "Massachusetts", "state_code": "MA", "county_name": "Middlesex", "county_code": 17.0, "community_name": null, "community_code": null, "latitude": 42.6347, "longitude": -71.3908, "accuracy": 4.0}, "01864": {"postal_code": "01864", "country_code": "US", "place_name": "North Reading", "state_name": "Massachusetts", "state_code": "MA", "county_name": "Middlesex", "county_code": 17.0, "community_name": null, "community_code": null, "latitude": 42.5819, "longitude": -71.0947, "accuracy": 4.0}, "01867": {"postal_code": "01867", "country_code": "US", "place_name": "Reading", "state_name": "Massachusetts", "state_code": "MA", "county_name": "Middlesex", "county_code": 17.0, "community_name": null, "community_code": null, "latitude": 42.528, "longitude": -71.109, "accuracy": 4.0}, "01876": {"postal_code": "01876", "country_code": "US", "place_name": "Tewksbury", "state_name": "Massachusetts", "state_code": "MA", "county_name": "Middlesex", "county_code": 17.0, "community_name": null, "community_code": null, "latitude": 42.6028, "longitude": -71.2232, "accuracy": 4.0}, "01879": {"postal_code": "01879", "country_code": "US", "place_name": "Tyngsboro", "state_name": "Massachusetts", "state_code": "MA", "county_name": "Middlesex", "county_code": 17.0, "community_name": null, "community_code": null, "latitude": 42.6724, "longitude": -71.4158, "accuracy": 4.0}, "01880": {"postal_code": "01880", "country_code": "US", "place_name": "Wakefield", "state_name": "Massachusetts", "state_code": "MA", "county_name": "Middlesex", "county_code": 17.0, "community_name": null, "community_code": null, "latitude": 42.5009, "longitude": -71.0685, "accuracy": 4.0}, "01886": {"postal_code": "01886", "country_code": "US", "place_name": "Westford", "state_name": "Massachusetts", "state_code": "MA", "county_name": "Middlesex", "county_code": 17.0, "community_name": null, "community_code": null, "latitude": 42.5864, "longitude": -71.4401, "accuracy": 4.0}, "01887": {"postal_code": "01887", "country_code": "US", "place_name": "Wilmington", "state_name": "Massachusetts", "state_code": "MA", "county_name": "Middlesex", "county_code": 17.0, "community_name": null, "community_code": null, "latitude": 42.5581, "longitude": -71.1723, "accuracy": 4.0}, "01900": {"postal_code": "01900", "country_code": "DE", "place_name": "Bretnig-Hauswalde, Gro\u00dfr\u00f6hrsdorf", "state_name": "Sachsen", "state_code": "SN", "county_name": null, "county_code": 0.0, "community_name": "Landkreis Bautzen", "community_code": 14625.0, "latitude": 51.14765, "longitude": 14.05125, "accuracy": 4.0}, "01902": {"postal_code": "01902", "country_code": "US", "place_name": "Lynn", "state_name": "Massachusetts", "state_code": "MA", "county_name": "Essex", "county_code": 9.0, "community_name": null, "community_code": null, "latitude": 42.4698, "longitude": -70.942, "accuracy": 4.0}, "01905": {"postal_code": "01905", "country_code": "US", "place_name": "Lynn", "state_name": "Massachusetts", "state_code": "MA", "county_name": "Essex", "county_code": 9.0, "community_name": null, "community_code": null, "latitude": 42.4694, "longitude": -70.9728, "accuracy": 4.0}, "01907": {"postal_code": "01907", "country_code": "US", "place_name": "Swampscott", "state_name": "Massachusetts", "state_code": "MA", "county_name": "Essex", "county_code": 9.0, "community_name": null, "community_code": null, "latitude": 42.4746, "longitude": -70.9098, "accuracy": 4.0}, "01913": {"postal_code": "01913", "country_code": "US", "place_name": "Amesbury", "state_name": "Massachusetts", "state_code": "MA", "county_name": "Essex", "county_code": 9.0, "community_name": null, "community_code": null, "latitude": 42.8559, "longitude": -70.9367, "accuracy": 4.0}, "01915": {"postal_code": "01915", "country_code": "US", "place_name": "Beverly", "state_name": "Massachusetts", "state_code": "MA", "county_name": "Essex", "county_code": 9.0, "community_name": null, "community_code": null, "latitude": 42.5608, "longitude": -70.8759, "accuracy": 4.0}, "01921": {"postal_code": "01921", "country_code": "US", "place_name": "Boxford", "state_name": "Massachusetts", "state_code": "MA", "county_name": "Essex", "county_code": 9.0, "community_name": null, "community_code": null, "latitude": 42.6797, "longitude": -71.0114, "accuracy": 4.0}, "01923": {"postal_code": "01923", "country_code": "US", "place_name": "Danvers", "state_name": "Massachusetts", "state_code": "MA", "county_name": "Essex", "county_code": 9.0, "community_name": null, "community_code": null, "latitude": 42.5694, "longitude": -70.9425, "accuracy": 4.0}, "01930": {"postal_code": "01930", "country_code": "US", "place_name": "Gloucester", "state_name": "Massachusetts", "state_code": "MA", "county_name": "Essex", "county_code": 9.0, "community_name": null, "community_code": null, "latitude": 42.6208, "longitude": -70.6721, "accuracy": 4.0}, "01938": {"postal_code": "01938", "country_code": "US", "place_name": "Ipswich", "state_name": "Massachusetts", "state_code": "MA", "county_name": "Essex", "county_code": 9.0, "community_name": null, "community_code": null, "latitude": 42.6809, "longitude": -70.8494, "accuracy": 4.0}, "01944": {"postal_code": "01944", "country_code": "US", "place_name": "Manchester", "state_name": "Massachusetts", "state_code": "MA", "county_name": "Essex", "county_code": 9.0, "community_name": null, "community_code": null, "latitude": 42.5796, "longitude": -70.7674, "accuracy": 4.0}, "01945": {"postal_code": "01945", "country_code": "US", "place_name": "Marblehead", "state_name": "Massachusetts", "state_code": "MA", "county_name": "Essex", "county_code": 9.0, "community_name": null, "community_code": null, "latitude": 42.4984, "longitude": -70.8653, "accuracy": 4.0}, "01950": {"postal_code": "01950", "country_code": "US", "place_name": "Newburyport", "state_name": "Massachusetts", "state_code": "MA", "county_name": "Essex", "county_code": 9.0, "community_name": null, "community_code": null, "latitude": 42.813, "longitude": -70.8847, "accuracy": 4.0}, "01960": {"postal_code": "01960", "country_code": "US", "place_name": "Peabody", "state_name": "Massachusetts", "state_code": "MA", "county_name": "Essex", "county_code": 9.0, "community_name": null, "community_code": null, "latitude": 42.5326, "longitude": -70.9612, "accuracy": 4.0}, "01969": {"postal_code": "01969", "country_code": "US", "place_name": "Rowley", "state_name": "Massachusetts", "state_code": "MA", "county_name": "Essex", "county_code": 9.0, "community_name": null, "community_code": null, "latitude": 42.7138, "longitude": -70.907, "accuracy": 4.0}, "01970": {"postal_code": "01970", "country_code": "US", "place_name": "Salem", "state_name": "Massachusetts", "state_code": "MA", "county_name": "Essex", "county_code": 9.0, "community_name": null, "community_code": null, "latitude": 42.5151, "longitude": -70.9003, "accuracy": 4.0}, "01983": {"postal_code": "01983", "country_code": "US", "place_name": "Topsfield", "state_name": "Massachusetts", "state_code": "MA", "county_name": "Essex", "county_code": 9.0, "community_name": null, "community_code": null, "latitude": 42.6415, "longitude": -70.9488, "accuracy": 4.0}, "01984": {"postal_code": "01984", "country_code": "US", "place_name": "Wenham", "state_name": "Massachusetts", "state_code": "MA", "county_name": "Essex", "county_code": 9.0, "community_name": null, "community_code": null, "latitude": 42.6017, "longitude": -70.8786, "accuracy": 4.0}, "01985": {"postal_code": "01985", "country_code": "US", "place_name": "West Newbury", "state_name": "Massachusetts", "state_code": "MA", "county_name": "Essex", "county_code": 9.0, "community_name": null, "community_code": null, "latitude": 42.7949, "longitude": -70.9778, "accuracy": 4.0}, "02019": {"postal_code": "02019", "country_code": "US", "place_name": "Bellingham", "state_name": "Massachusetts", "state_code": "MA", "county_name": "Norfolk", "county_code": 21.0, "community_name": null, "community_code": null, "latitude": 42.0746, "longitude": -71.4768, "accuracy": 4.0}, "02021": {"postal_code": "02021", "country_code": "US", "place_name": "Canton", "state_name": "Massachusetts", "state_code": "MA", "county_name": "Norfolk", "county_code": 21.0, "community_name": null, "community_code": null, "latitude": 42.1645, "longitude": -71.1355, "accuracy": 4.0}, "02025": {"postal_code": "02025", "country_code": "US", "place_name": "Cohasset", "state_name": "Massachusetts", "state_code": "MA", "county_name": "Norfolk", "county_code": 21.0, "community_name": null, "community_code": null, "latitude": 42.2395, "longitude": -70.8128, "accuracy": 4.0}, "02026": {"postal_code": "02026", "country_code": "US", "place_name": "Dedham", "state_name": "Massachusetts", "state_code": "MA", "county_name": "Norfolk", "county_code": 21.0, "community_name": null, "community_code": null, "latitude": 42.2437, "longitude": -71.1637, "accuracy": 4.0}, "02032": {"postal_code": "02032", "country_code": "US", "place_name": "East Walpole", "state_name": "Massachusetts", "state_code": "MA", "county_name": "Norfolk", "county_code": 21.0, "community_name": null, "community_code": null, "latitude": 42.1532, "longitude": -71.2179, "accuracy": 4.0}, "02035": {"postal_code": "02035", "country_code": "US", "place_name": "Foxboro", "state_name": "Massachusetts", "state_code": "MA", "county_name": "Norfolk", "county_code": 21.0, "community_name": null, "community_code": null, "latitude": 42.0649, "longitude": -71.2441, "accuracy": 4.0}, "02038": {"postal_code": "02038", "country_code": "US", "place_name": "Franklin", "state_name": "Massachusetts", "state_code": "MA", "county_name": "Norfolk", "county_code": 21.0, "community_name": null, "community_code": null, "latitude": 42.0935, "longitude": -71.4058, "accuracy": 4.0}, "02043": {"postal_code": "02043", "country_code": "US", "place_name": "Hingham", "state_name": "Massachusetts", "state_code": "MA", "county_name": "Plymouth", "county_code": 23.0, "community_name": null, "community_code": null, "latitude": 42.2245, "longitude": -70.8911, "accuracy": 4.0}, "02045": {"postal_code": "02045", "country_code": "US", "place_name": "Hull", "state_name": "Massachusetts", "state_code": "MA", "county_name": "Plymouth", "county_code": 23.0, "community_name": null, "community_code": null, "latitude": 42.2853, "longitude": -70.8754, "accuracy": 4.0}, "02048": {"postal_code": "02048", "country_code": "US", "place_name": "Mansfield", "state_name": "Massachusetts", "state_code": "MA", "county_name": "Bristol", "county_code": 5.0, "community_name": null, "community_code": null, "latitude": 42.0212, "longitude": -71.2178, "accuracy": 4.0}, "02050": {"postal_code": "02050", "country_code": "US", "place_name": "Marshfield", "state_name": "Massachusetts", "state_code": "MA", "county_name": "Plymouth", "county_code": 23.0, "community_name": null, "community_code": null, "latitude": 42.1062, "longitude": -70.6993, "accuracy": 4.0}, "02053": {"postal_code": "02053", "country_code": "US", "place_name": "Medway", "state_name": "Massachusetts", "state_code": "MA", "county_name": "Norfolk", "county_code": 21.0, "community_name": null, "community_code": null, "latitude": 42.1514, "longitude": -71.4217, "accuracy": 4.0}, "02054": {"postal_code": "02054", "country_code": "US", "place_name": "Millis", "state_name": "Massachusetts", "state_code": "MA", "county_name": "Norfolk", "county_code": 21.0, "community_name": null, "community_code": null, "latitude": 42.1669, "longitude": -71.3607, "accuracy": 4.0}, "02061": {"postal_code": "02061", "country_code": "US", "place_name": "Norwell", "state_name": "Massachusetts", "state_code": "MA", "county_name": "Plymouth", "county_code": 23.0, "community_name": null, "community_code": null, "latitude": 42.1596, "longitude": -70.8217, "accuracy": 4.0}, "02062": {"postal_code": "02062", "country_code": "US", "place_name": "Norwood", "state_name": "Massachusetts", "state_code": "MA", "county_name": "Norfolk", "county_code": 21.0, "community_name": null, "community_code": null, "latitude": 42.1868, "longitude": -71.2033, "accuracy": 4.0}, "02066": {"postal_code": "02066", "country_code": "US", "place_name": "Scituate", "state_name": "Massachusetts", "state_code": "MA", "county_name": "Plymouth", "county_code": 23.0, "community_name": null, "community_code": null, "latitude": 42.2032, "longitude": -70.7525, "accuracy": 4.0}, "02067": {"postal_code": "02067", "country_code": "US", "place_name": "Sharon", "state_name": "Massachusetts", "state_code": "MA", "county_name": "Norfolk", "county_code": 21.0, "community_name": null, "community_code": null, "latitude": 42.1094, "longitude": -71.1759, "accuracy": 4.0}, "02072": {"postal_code": "02072", "country_code": "US", "place_name": "Stoughton", "state_name": "Massachusetts", "state_code": "MA", "county_name": "Norfolk", "county_code": 21.0, "community_name": null, "community_code": null, "latitude": 42.1253, "longitude": -71.1074, "accuracy": 4.0}, "02090": {"postal_code": "02090", "country_code": "US", "place_name": "Westwood", "state_name": "Massachusetts", "state_code": "MA", "county_name": "Norfolk", "county_code": 21.0, "community_name": null, "community_code": null, "latitude": 42.2148, "longitude": -71.2104, "accuracy": 4.0}, "02093": {"postal_code": "02093", "country_code": "US", "place_name": "Wrentham", "state_name": "Massachusetts", "state_code": "MA", "county_name": "Norfolk", "county_code": 21.0, "community_name": null, "community_code": null, "latitude": 42.0617, "longitude": -71.3396, "accuracy": 4.0}, "02108": {"postal_code": "02108", "country_code": "US", "place_name": "Boston", "state_name": "Massachusetts", "state_code": "MA", "county_name": "Suffolk", "county_code": 25.0, "community_name": null, "community_code": null, "latitude": 42.3576, "longitude": -71.0684, "accuracy": 4.0}, "02111": {"postal_code": "02111", "country_code": "US", "place_name": "Boston", "state_name": "Massachusetts", "state_code": "MA", "county_name": "Suffolk", "county_code": 25.0, "community_name": null, "community_code": null, "latitude": 42.3503, "longitude": -71.0629, "accuracy": 4.0}, "02113": {"postal_code": "02113", "country_code": "US", "place_name": "Boston", "state_name": "Massachusetts", "state_code": "MA", "county_name": "Suffolk", "county_code": 25.0, "community_name": null, "community_code": null, "latitude": 42.3657, "longitude": -71.056, "accuracy": 4.0}, "02114": {"postal_code": "02114", "country_code": "US", "place_name": "Boston", "state_name": "Massachusetts", "state_code": "MA", "county_name": "Suffolk", "county_code": 25.0, "community_name": null, "community_code": null, "latitude": 42.3611, "longitude": -71.0682, "accuracy": 4.0}, "02118": {"postal_code": "02118", "country_code": "US", "place_name": "Boston", "state_name": "Massachusetts", "state_code": "MA", "county_name": "Suffolk", "county_code": 25.0, "community_name": null, "community_code": null, "latitude": 42.3362, "longitude": -71.0729, "accuracy": 4.0}, "02119": {"postal_code": "02119", "country_code": "US", "place_name": "Roxbury", "state_name": "Massachusetts", "state_code": "MA", "county_name": "Suffolk", "county_code": 25.0, "community_name": null, "community_code": null, "latitude": 42.3251, "longitude": -71.0953, "accuracy": 4.0}, "02120": {"postal_code": "02120", "country_code": "US", "place_name": "Roxbury Crossing", "state_name": "Massachusetts", "state_code": "MA", "county_name": "Suffolk", "county_code": 25.0, "community_name": null, "community_code": null, "latitude": 42.3307, "longitude": -71.0912, "accuracy": 4.0}, "02121": {"postal_code": "02121", "country_code": "US", "place_name": "Dorchester", "state_name": "Massachusetts", "state_code": "MA", "county_name": "Suffolk", "county_code": 25.0, "community_name": null, "community_code": null, "latitude": 42.2973, "longitude": -71.0745, "accuracy": 4.0}, "02125": {"postal_code": "02125", "country_code": "US", "place_name": "Dorchester", "state_name": "Massachusetts", "state_code": "MA", "county_name": "Suffolk", "county_code": 25.0, "community_name": null, "community_code": null, "latitude": 42.2973, "longitude": -71.0745, "accuracy": 4.0}, "02126": {"postal_code": "02126", "country_code": "US", "place_name": "Mattapan", "state_name": "Massachusetts", "state_code": "MA", "county_name": "Suffolk", "county_code": 25.0, "community_name": null, "community_code": null, "latitude": 42.2739, "longitude": -71.0939, "accuracy": 4.0}, "02127": {"postal_code": "02127", "country_code": "US", "place_name": "Boston", "state_name": "Massachusetts", "state_code": "MA", "county_name": "Suffolk", "county_code": 25.0, "community_name": null, "community_code": null, "latitude": 42.3347, "longitude": -71.0375, "accuracy": 4.0}, "02128": {"postal_code": "02128", "country_code": "US", "place_name": "Boston", "state_name": "Massachusetts", "state_code": "MA", "county_name": "Suffolk", "county_code": 25.0, "community_name": null, "community_code": null, "latitude": 42.3642, "longitude": -71.0257, "accuracy": 4.0}, "02129": {"postal_code": "02129", "country_code": "US", "place_name": "Charlestown", "state_name": "Massachusetts", "state_code": "MA", "county_name": "Suffolk", "county_code": 25.0, "community_name": null, "community_code": null, "latitude": 42.3778, "longitude": -71.0627, "accuracy": 4.0}, "02130": {"postal_code": "02130", "country_code": "US", "place_name": "Jamaica Plain", "state_name": "Massachusetts", "state_code": "MA", "county_name": "Suffolk", "county_code": 25.0, "community_name": null, "community_code": null, "latitude": 42.3126, "longitude": -71.1115, "accuracy": 4.0}, "02131": {"postal_code": "02131", "country_code": "US", "place_name": "Roslindale", "state_name": "Massachusetts", "state_code": "MA", "county_name": "Suffolk", "county_code": 25.0, "community_name": null, "community_code": null, "latitude": 42.2836, "longitude": -71.1295, "accuracy": 4.0}, "02132": {"postal_code": "02132", "country_code": "US", "place_name": "West Roxbury", "state_name": "Massachusetts", "state_code": "MA", "county_name": "Suffolk", "county_code": 25.0, "community_name": null, "community_code": null, "latitude": 42.2787, "longitude": -71.1589, "accuracy": 4.0}, "02134": {"postal_code": "02134", "country_code": "US", "place_name": "Allston", "state_name": "Massachusetts", "state_code": "MA", "county_name": "Suffolk", "county_code": 25.0, "community_name": null, "community_code": null, "latitude": 42.3535, "longitude": -71.1329, "accuracy": 4.0}, "02135": {"postal_code": "02135", "country_code": "US", "place_name": "Brighton", "state_name": "Massachusetts", "state_code": "MA", "county_name": "Suffolk", "county_code": 25.0, "community_name": null, "community_code": null, "latitude": 42.3478, "longitude": -71.1566, "accuracy": 4.0}, "02136": {"postal_code": "02136", "country_code": "US", "place_name": "Hyde Park", "state_name": "Massachusetts", "state_code": "MA", "county_name": "Suffolk", "county_code": 25.0, "community_name": null, "community_code": null, "latitude": 42.254, "longitude": -71.1261, "accuracy": 4.0}, "02138": {"postal_code": "02138", "country_code": "US", "place_name": "Cambridge", "state_name": "Massachusetts", "state_code": "MA", "county_name": "Middlesex", "county_code": 17.0, "community_name": null, "community_code": null, "latitude": 42.377, "longitude": -71.1256, "accuracy": 4.0}, "02139": {"postal_code": "02139", "country_code": "US", "place_name": "Cambridge", "state_name": "Massachusetts", "state_code": "MA", "county_name": "Middlesex", "county_code": 17.0, "community_name": null, "community_code": null, "latitude": 42.3647, "longitude": -71.1042, "accuracy": 4.0}, "02143": {"postal_code": "02143", "country_code": "US", "place_name": "Somerville", "state_name": "Massachusetts", "state_code": "MA", "county_name": "Middlesex", "county_code": 17.0, "community_name": null, "community_code": null, "latitude": 42.3829, "longitude": -71.1028, "accuracy": 4.0}, "02144": {"postal_code": "02144", "country_code": "US", "place_name": "Somerville", "state_name": "Massachusetts", "state_code": "MA", "county_name": "Middlesex", "county_code": 17.0, "community_name": null, "community_code": null, "latitude": 42.4003, "longitude": -71.1221, "accuracy": 4.0}, "02145": {"postal_code": "02145", "country_code": "US", "place_name": "Somerville", "state_name": "Massachusetts", "state_code": "MA", "county_name": "Middlesex", "county_code": 17.0, "community_name": null, "community_code": null, "latitude": 42.3907, "longitude": -71.0929, "accuracy": 4.0}, "02148": {"postal_code": "02148", "country_code": "US", "place_name": "Malden", "state_name": "Massachusetts", "state_code": "MA", "county_name": "Middlesex", "county_code": 17.0, "community_name": null, "community_code": null, "latitude": 42.4291, "longitude": -71.0605, "accuracy": 4.0}, "02149": {"postal_code": "02149", "country_code": "US", "place_name": "Everett", "state_name": "Massachusetts", "state_code": "MA", "county_name": "Middlesex", "county_code": 17.0, "community_name": null, "community_code": null, "latitude": 42.4112, "longitude": -71.0514, "accuracy": 4.0}, "02150": {"postal_code": "02150", "country_code": "US", "place_name": "Chelsea", "state_name": "Massachusetts", "state_code": "MA", "county_name": "Suffolk", "county_code": 25.0, "community_name": null, "community_code": null, "latitude": 42.3963, "longitude": -71.0325, "accuracy": 4.0}, "02151": {"postal_code": "02151", "country_code": "US", "place_name": "Revere", "state_name": "Massachusetts", "state_code": "MA", "county_name": "Suffolk", "county_code": 25.0, "community_name": null, "community_code": null, "latitude": 42.4138, "longitude": -71.0052, "accuracy": 4.0}, "02152": {"postal_code": "02152", "country_code": "US", "place_name": "Winthrop", "state_name": "Massachusetts", "state_code": "MA", "county_name": "Suffolk", "county_code": 25.0, "community_name": null, "community_code": null, "latitude": 42.3763, "longitude": -70.98, "accuracy": 4.0}, "02155": {"postal_code": "02155", "country_code": "US", "place_name": "Medford", "state_name": "Massachusetts", "state_code": "MA", "county_name": "Middlesex", "county_code": 17.0, "community_name": null, "community_code": null, "latitude": 42.4173, "longitude": -71.1087, "accuracy": 4.0}, "02169": {"postal_code": "02169", "country_code": "US", "place_name": "Quincy", "state_name": "Massachusetts", "state_code": "MA", "county_name": "Norfolk", "county_code": 21.0, "community_name": null, "community_code": null, "latitude": 42.2491, "longitude": -70.9978, "accuracy": 4.0}, "02171": {"postal_code": "02171", "country_code": "US", "place_name": "Quincy", "state_name": "Massachusetts", "state_code": "MA", "county_name": "Norfolk", "county_code": 21.0, "community_name": null, "community_code": null, "latitude": 42.2825, "longitude": -71.0241, "accuracy": 4.0}, "02184": {"postal_code": "02184", "country_code": "US", "place_name": "Braintree", "state_name": "Massachusetts", "state_code": "MA", "county_name": "Norfolk", "county_code": 21.0, "community_name": null, "community_code": null, "latitude": 42.2093, "longitude": -70.9963, "accuracy": 4.0}, "02186": {"postal_code": "02186", "country_code": "US", "place_name": "Milton", "state_name": "Massachusetts", "state_code": "MA", "county_name": "Norfolk", "county_code": 21.0, "community_name": null, "community_code": null, "latitude": 42.2537, "longitude": -71.0771, "accuracy": 4.0}, "02188": {"postal_code": "02188", "country_code": "US", "place_name": "Weymouth", "state_name": "Massachusetts", "state_code": "MA", "county_name": "Norfolk", "county_code": 21.0, "community_name": null, "community_code": null, "latitude": 42.2113, "longitude": -70.9582, "accuracy": 4.0}, "02190": {"postal_code": "02190", "country_code": "US", "place_name": "South Weymouth", "state_name": "Massachusetts", "state_code": "MA", "county_name": "Norfolk", "county_code": 21.0, "community_name": null, "community_code": null, "latitude": 42.1751, "longitude": -70.9495, "accuracy": 4.0}, "02215": {"postal_code": "02215", "country_code": "US", "place_name": "Boston", "state_name": "Massachusetts", "state_code": "MA", "county_name": "Suffolk", "county_code": 25.0, "community_name": null, "community_code": null, "latitude": 42.3471, "longitude": -71.1027, "accuracy": 4.0}, "0230": {"postal_code": "0230", "country_code": "NO", "place_name": "Oslo", "state_name": "Oslo County", "state_code": 12, "county_name": "Oslo", "county_code": 301, "community_name": null, "community_code": null, "latitude": 59.8457, "longitude": 10.7823, "accuracy": 4.0}, "02302": {"postal_code": "02302", "country_code": "US", "place_name": "Brockton", "state_name": "Massachusetts", "state_code": "MA", "county_name": "Plymouth", "county_code": 23.0, "community_name": null, "community_code": null, "latitude": 42.0847, "longitude": -71.0002, "accuracy": 4.0}, "02320": {"postal_code": "02320", "country_code": "ES", "place_name": "Balazote", "state_name": "Castilla - La Mancha", "state_code": "CM", "county_name": "Albacete", "county_code": "AB", "community_name": "Balazote", "community_code": 2012.0, "latitude": 38.8844, "longitude": -2.1518, "accuracy": 4}, "02324": {"postal_code": "02324", "country_code": "US", "place_name": "Bridgewater", "state_name": "Massachusetts", "state_code": "MA", "county_name": "Plymouth", "county_code": 23.0, "community_name": null, "community_code": null, "latitude": 41.9773, "longitude": -70.9723, "accuracy": 4.0}, "02330": {"postal_code": "02330", "country_code": "US", "place_name": "Carver", "state_name": "Massachusetts", "state_code": "MA", "county_name": "Plymouth", "county_code": 23.0, "community_name": null, "community_code": null, "latitude": 41.8883, "longitude": -70.7678, "accuracy": 4.0}, "02333": {"postal_code": "02333", "country_code": "US", "place_name": "East Bridgewater", "state_name": "Massachusetts", "state_code": "MA", "county_name": "Plymouth", "county_code": 23.0, "community_name": null, "community_code": null, "latitude": 42.0315, "longitude": -70.945, "accuracy": 4.0}, "02338": {"postal_code": "02338", "country_code": "US", "place_name": "Halifax", "state_name": "Massachusetts", "state_code": "MA", "county_name": "Plymouth", "county_code": 23.0, "community_name": null, "community_code": null, "latitude": 42.0002, "longitude": -70.8448, "accuracy": 4.0}, "02339": {"postal_code": "02339", "country_code": "US", "place_name": "Hanover", "state_name": "Massachusetts", "state_code": "MA", "county_name": "Plymouth", "county_code": 23.0, "community_name": null, "community_code": null, "latitude": 42.1214, "longitude": -70.857, "accuracy": 4.0}, "02341": {"postal_code": "02341", "country_code": "US", "place_name": "Hanson", "state_name": "Massachusetts", "state_code": "MA", "county_name": "Plymouth", "county_code": 23.0, "community_name": null, "community_code": null, "latitude": 42.0616, "longitude": -70.8651, "accuracy": 4.0}, "02346": {"postal_code": "02346", "country_code": "US", "place_name": "Middleboro", "state_name": "Massachusetts", "state_code": "MA", "county_name": "Plymouth", "county_code": 23.0, "community_name": null, "community_code": null, "latitude": 41.8884, "longitude": -70.893, "accuracy": 4.0}, "02350": {"postal_code": "02350", "country_code": "US", "place_name": "Monponsett", "state_name": "Massachusetts", "state_code": "MA", "county_name": "Plymouth", "county_code": 23.0, "community_name": null, "community_code": null, "latitude": 42.0185, "longitude": -70.8475, "accuracy": 4.0}, "02351": {"postal_code": "02351", "country_code": "US", "place_name": "Abington", "state_name": "Massachusetts", "state_code": "MA", "county_name": "Plymouth", "county_code": 23.0, "community_name": null, "community_code": null, "latitude": 42.1167, "longitude": -70.9543, "accuracy": 4.0}, "02356": {"postal_code": "02356", "country_code": "US", "place_name": "North Easton", "state_name": "Massachusetts", "state_code": "MA", "county_name": "Bristol", "county_code": 5.0, "community_name": null, "community_code": null, "latitude": 42.059, "longitude": -71.1123, "accuracy": 4.0}, "02359": {"postal_code": "02359", "country_code": "US", "place_name": "Pembroke", "state_name": "Massachusetts", "state_code": "MA", "county_name": "Plymouth", "county_code": 23.0, "community_name": null, "community_code": null, "latitude": 42.0621, "longitude": -70.8044, "accuracy": 4.0}, "02360": {"postal_code": "02360", "country_code": "US", "place_name": "Plymouth", "state_name": "Massachusetts", "state_code": "MA", "county_name": "Plymouth", "county_code": 23.0, "community_name": null, "community_code": null, "latitude": 41.9104, "longitude": -70.642, "accuracy": 4.0}, "02364": {"postal_code": "02364", "country_code": "US", "place_name": "Kingston", "state_name": "Massachusetts", "state_code": "MA", "county_name": "Plymouth", "county_code": 23.0, "community_name": null, "community_code": null, "latitude": 41.995, "longitude": -70.741, "accuracy": 4.0}, "02368": {"postal_code": "02368", "country_code": "US", "place_name": "Randolph", "state_name": "Massachusetts", "state_code": "MA", "county_name": "Norfolk", "county_code": 21.0, "community_name": null, "community_code": null, "latitude": 42.1736, "longitude": -71.0514, "accuracy": 4.0}, "02370": {"postal_code": "02370", "country_code": "US", "place_name": "Rockland", "state_name": "Massachusetts", "state_code": "MA", "county_name": "Plymouth", "county_code": 23.0, "community_name": null, "community_code": null, "latitude": 42.1293, "longitude": -70.9133, "accuracy": 4.0}, "02375": {"postal_code": "02375", "country_code": "US", "place_name": "South Easton", "state_name": "Massachusetts", "state_code": "MA", "county_name": "Bristol", "county_code": 5.0, "community_name": null, "community_code": null, "latitude": 42.0257, "longitude": -71.0988, "accuracy": 4.0}, "02379": {"postal_code": "02379", "country_code": "US", "place_name": "West Bridgewater", "state_name": "Massachusetts", "state_code": "MA", "county_name": "Plymouth", "county_code": 23.0, "community_name": null, "community_code": null, "latitude": 42.0255, "longitude": -71.0161, "accuracy": 4.0}, "02382": {"postal_code": "02382", "country_code": "US", "place_name": "Whitman", "state_name": "Massachusetts", "state_code": "MA", "county_name": "Plymouth", "county_code": 23.0, "community_name": null, "community_code": null, "latitude": 42.0816, "longitude": -70.9381, "accuracy": 4.0}, "02420": {"postal_code": "02420", "country_code": "US", "place_name": "Lexington", "state_name": "Massachusetts", "state_code": "MA", "county_name": "Middlesex", "county_code": 17.0, "community_name": null, "community_code": null, "latitude": 42.4563, "longitude": -71.2167, "accuracy": 4.0}, "02445": {"postal_code": "02445", "country_code": "US", "place_name": "Brookline", "state_name": "Massachusetts", "state_code": "MA", "county_name": "Norfolk", "county_code": 21.0, "community_name": null, "community_code": null, "latitude": 42.3259, "longitude": -71.1341, "accuracy": 4.0}, "02451": {"postal_code": "02451", "country_code": "US", "place_name": "Waltham", "state_name": "Massachusetts", "state_code": "MA", "county_name": "Middlesex", "county_code": 17.0, "community_name": null, "community_code": null, "latitude": 42.3986, "longitude": -71.2451, "accuracy": 4.0}, "02452": {"postal_code": "02452", "country_code": "US", "place_name": "Waltham", "state_name": "Massachusetts", "state_code": "MA", "county_name": "Middlesex", "county_code": 17.0, "community_name": null, "community_code": null, "latitude": 42.3943, "longitude": -71.218, "accuracy": 4.0}, "02453": {"postal_code": "02453", "country_code": "US", "place_name": "Waltham", "state_name": "Massachusetts", "state_code": "MA", "county_name": "Middlesex", "county_code": 17.0, "community_name": null, "community_code": null, "latitude": 42.3654, "longitude": -71.2317, "accuracy": 4.0}, "02458": {"postal_code": "02458", "country_code": "US", "place_name": "Newton", "state_name": "Massachusetts", "state_code": "MA", "county_name": "Middlesex", "county_code": 17.0, "community_name": null, "community_code": null, "latitude": 42.3528, "longitude": -71.1875, "accuracy": 4.0}, "02459": {"postal_code": "02459", "country_code": "US", "place_name": "Newton Center", "state_name": "Massachusetts", "state_code": "MA", "county_name": "Middlesex", "county_code": 17.0, "community_name": null, "community_code": null, "latitude": 42.3341, "longitude": -71.1833, "accuracy": 4.0}, "02461": {"postal_code": "02461", "country_code": "US", "place_name": "Newton Highlands", "state_name": "Massachusetts", "state_code": "MA", "county_name": "Middlesex", "county_code": 17.0, "community_name": null, "community_code": null, "latitude": 42.3168, "longitude": -71.2084, "accuracy": 4.0}, "02464": {"postal_code": "02464", "country_code": "US", "place_name": "Newton Upper Falls", "state_name": "Massachusetts", "state_code": "MA", "county_name": "Middlesex", "county_code": 17.0, "community_name": null, "community_code": null, "latitude": 42.3129, "longitude": -71.2195, "accuracy": 4.0}, "02465": {"postal_code": "02465", "country_code": "US", "place_name": "West Newton", "state_name": "Massachusetts", "state_code": "MA", "county_name": "Middlesex", "county_code": 17.0, "community_name": null, "community_code": null, "latitude": 42.3492, "longitude": -71.2267, "accuracy": 4.0}, "02466": {"postal_code": "02466", "country_code": "US", "place_name": "Auburndale", "state_name": "Massachusetts", "state_code": "MA", "county_name": "Middlesex", "county_code": 17.0, "community_name": null, "community_code": null, "latitude": 42.3441, "longitude": -71.248, "accuracy": 4.0}, "02467": {"postal_code": "02467", "country_code": "US", "place_name": "Chestnut Hill", "state_name": "Massachusetts", "state_code": "MA", "county_name": "Middlesex", "county_code": 17.0, "community_name": null, "community_code": null, "latitude": 42.3164, "longitude": -71.1612, "accuracy": 4.0}, "02472": {"postal_code": "02472", "country_code": "US", "place_name": "Watertown", "state_name": "Massachusetts", "state_code": "MA", "county_name": "Middlesex", "county_code": 17.0, "community_name": null, "community_code": null, "latitude": 42.37, "longitude": -71.1773, "accuracy": 4.0}, "02474": {"postal_code": "02474", "country_code": "US", "place_name": "Arlington", "state_name": "Massachusetts", "state_code": "MA", "county_name": "Middlesex", "county_code": 17.0, "community_name": null, "community_code": null, "latitude": 42.4202, "longitude": -71.1565, "accuracy": 4.0}, "02478": {"postal_code": "02478", "country_code": "US", "place_name": "Belmont", "state_name": "Massachusetts", "state_code": "MA", "county_name": "Middlesex", "county_code": 17.0, "community_name": null, "community_code": null, "latitude": 42.3959, "longitude": -71.1787, "accuracy": 4.0}, "02481": {"postal_code": "02481", "country_code": "US", "place_name": "Wellesley Hills", "state_name": "Massachusetts", "state_code": "MA", "county_name": "Norfolk", "county_code": 21.0, "community_name": null, "community_code": null, "latitude": 42.3106, "longitude": -71.2747, "accuracy": 4.0}, "02482": {"postal_code": "02482", "country_code": "US", "place_name": "Wellesley", "state_name": "Massachusetts", "state_code": "MA", "county_name": "Norfolk", "county_code": 21.0, "community_name": null, "community_code": null, "latitude": 42.2945, "longitude": -71.2992, "accuracy": 4.0}, "02493": {"postal_code": "02493", "country_code": "US", "place_name": "Weston", "state_name": "Massachusetts", "state_code": "MA", "county_name": "Middlesex", "county_code": 17.0, "community_name": null, "community_code": null, "latitude": 42.3589, "longitude": -71.3001, "accuracy": 4.0}, "02540": {"postal_code": "02540", "country_code": "US", "place_name": "Falmouth", "state_name": "Massachusetts", "state_code": "MA", "county_name": "Barnstable", "county_code": 1.0, "community_name": null, "community_code": null, "latitude": 41.5648, "longitude": -70.6217, "accuracy": 4.0}, "02554": {"postal_code": "02554", "country_code": "US", "place_name": "Nantucket", "state_name": "Massachusetts", "state_code": "MA", "county_name": "Nantucket", "county_code": 19.0, "community_name": null, "community_code": null, "latitude": 41.2725, "longitude": -70.0932, "accuracy": 4.0}, "02557": {"postal_code": "02557", "country_code": "US", "place_name": "Oak Bluffs", "state_name": "Massachusetts", "state_code": "MA", "county_name": "Dukes", "county_code": 7.0, "community_name": null, "community_code": null, "latitude": 41.4543, "longitude": -70.562, "accuracy": 4.0}, "02559": {"postal_code": "02559", "country_code": "US", "place_name": "Pocasset", "state_name": "Massachusetts", "state_code": "MA", "county_name": "Barnstable", "county_code": 1.0, "community_name": null, "community_code": null, "latitude": 41.6881, "longitude": -70.6105, "accuracy": 4.0}, "02562": {"postal_code": "02562", "country_code": "US", "place_name": "Sagamore Beach", "state_name": "Massachusetts", "state_code": "MA", "county_name": "Barnstable", "county_code": 1.0, "community_name": null, "community_code": null, "latitude": 41.7933, "longitude": -70.5196, "accuracy": 4.0}, "02568": {"postal_code": "02568", "country_code": "US", "place_name": "Vineyard Haven", "state_name": "Massachusetts", "state_code": "MA", "county_name": "Dukes", "county_code": 7.0, "community_name": null, "community_code": null, "latitude": 41.45, "longitude": -70.5937, "accuracy": 4.0}, "02571": {"postal_code": "02571", "country_code": "US", "place_name": "Wareham", "state_name": "Massachusetts", "state_code": "MA", "county_name": "Plymouth", "county_code": 23.0, "community_name": null, "community_code": null, "latitude": 41.7541, "longitude": -70.7116, "accuracy": 4.0}, "02575": {"postal_code": "02575", "country_code": "US", "place_name": "West Tisbury", "state_name": "Massachusetts", "state_code": "MA", "county_name": "Dukes", "county_code": 7.0, "community_name": null, "community_code": null, "latitude": 41.4213, "longitude": -70.6428, "accuracy": 4.0}, "02632": {"postal_code": "02632", "country_code": "US", "place_name": "Centerville", "state_name": "Massachusetts", "state_code": "MA", "county_name": "Barnstable", "county_code": 1.0, "community_name": null, "community_code": null, "latitude": 41.6606, "longitude": -70.3532, "accuracy": 4.0}, "02635": {"postal_code": "02635", "country_code": "US", "place_name": "Cotuit", "state_name": "Massachusetts", "state_code": "MA", "county_name": "Barnstable", "county_code": 1.0, "community_name": null, "community_code": null, "latitude": 41.6243, "longitude": -70.4364, "accuracy": 4.0}, "02642": {"postal_code": "02642", "country_code": "US", "place_name": "Eastham", "state_name": "Massachusetts", "state_code": "MA", "county_name": "Barnstable", "county_code": 1.0, "community_name": null, "community_code": null, "latitude": 41.8408, "longitude": -69.9849, "accuracy": 4.0}, "02645": {"postal_code": "02645", "country_code": "US", "place_name": "Harwich", "state_name": "Massachusetts", "state_code": "MA", "county_name": "Barnstable", "county_code": 1.0, "community_name": null, "community_code": null, "latitude": 41.7008, "longitude": -70.0579, "accuracy": 4.0}, "02646": {"postal_code": "02646", "country_code": "US", "place_name": "Harwich Port", "state_name": "Massachusetts", "state_code": "MA", "county_name": "Barnstable", "county_code": 1.0, "community_name": null, "community_code": null, "latitude": 41.6703, "longitude": -70.0722, "accuracy": 4.0}, "02649": {"postal_code": "02649", "country_code": "US", "place_name": "Mashpee", "state_name": "Massachusetts", "state_code": "MA", "county_name": "Barnstable", "county_code": 1.0, "community_name": null, "community_code": null, "latitude": 41.6181, "longitude": -70.4854, "accuracy": 4.0}, "02660": {"postal_code": "02660", "country_code": "US", "place_name": "South Dennis", "state_name": "Massachusetts", "state_code": "MA", "county_name": "Barnstable", "county_code": 1.0, "community_name": null, "community_code": null, "latitude": 41.7097, "longitude": -70.1585, "accuracy": 4.0}, "02661": {"postal_code": "02661", "country_code": "US", "place_name": "South Harwich", "state_name": "Massachusetts", "state_code": "MA", "county_name": "Barnstable", "county_code": 1.0, "community_name": null, "community_code": null, "latitude": 41.6862, "longitude": -70.0329, "accuracy": 4.0}, "02663": {"postal_code": "02663", "country_code": "US", "place_name": "South Wellfleet", "state_name": "Massachusetts", "state_code": "MA", "county_name": "Barnstable", "county_code": 1.0, "community_name": null, "community_code": null, "latitude": 41.9182, "longitude": -69.9953, "accuracy": 4.0}, "02664": {"postal_code": "02664", "country_code": "US", "place_name": "South Yarmouth", "state_name": "Massachusetts", "state_code": "MA", "county_name": "Barnstable", "county_code": 1.0, "community_name": null, "community_code": null, "latitude": 41.6739, "longitude": -70.1949, "accuracy": 4.0}, "02675": {"postal_code": "02675", "country_code": "US", "place_name": "Yarmouth Port", "state_name": "Massachusetts", "state_code": "MA", "county_name": "Barnstable", "county_code": 1.0, "community_name": null, "community_code": null, "latitude": 41.7051, "longitude": -70.227, "accuracy": 4.0}, "02703": {"postal_code": "02703", "country_code": "US", "place_name": "Attleboro", "state_name": "Massachusetts", "state_code": "MA", "county_name": "Bristol", "county_code": 5.0, "community_name": null, "community_code": null, "latitude": 41.9296, "longitude": -71.3009, "accuracy": 4.0}, "02715": {"postal_code": "02715", "country_code": "US", "place_name": "Dighton", "state_name": "Massachusetts", "state_code": "MA", "county_name": "Bristol", "county_code": 5.0, "community_name": null, "community_code": null, "latitude": 41.8125, "longitude": -71.1427, "accuracy": 4.0}, "02718": {"postal_code": "02718", "country_code": "US", "place_name": "East Taunton", "state_name": "Massachusetts", "state_code": "MA", "county_name": "Bristol", "county_code": 5.0, "community_name": null, "community_code": null, "latitude": 41.8736, "longitude": -71.0192, "accuracy": 4.0}, "02719": {"postal_code": "02719", "country_code": "US", "place_name": "Fairhaven", "state_name": "Massachusetts", "state_code": "MA", "county_name": "Bristol", "county_code": 5.0, "community_name": null, "community_code": null, "latitude": 41.6409, "longitude": -70.8896, "accuracy": 4.0}, "02720": {"postal_code": "02720", "country_code": "US", "place_name": "Fall River", "state_name": "Massachusetts", "state_code": "MA", "county_name": "Bristol", "county_code": 5.0, "community_name": null, "community_code": null, "latitude": 41.7182, "longitude": -71.14, "accuracy": 4.0}, "02723": {"postal_code": "02723", "country_code": "US", "place_name": "Fall River", "state_name": "Massachusetts", "state_code": "MA", "county_name": "Bristol", "county_code": 5.0, "community_name": null, "community_code": null, "latitude": 41.6926, "longitude": -71.1332, "accuracy": 4.0}, "02725": {"postal_code": "02725", "country_code": "US", "place_name": "Somerset", "state_name": "Massachusetts", "state_code": "MA", "county_name": "Bristol", "county_code": 5.0, "community_name": null, "community_code": null, "latitude": 41.7223, "longitude": -71.178, "accuracy": 4.0}, "02740": {"postal_code": "02740", "country_code": "US", "place_name": "New Bedford", "state_name": "Massachusetts", "state_code": "MA", "county_name": "Bristol", "county_code": 5.0, "community_name": null, "community_code": null, "latitude": 41.6347, "longitude": -70.9372, "accuracy": 4.0}, "02745": {"postal_code": "02745", "country_code": "US", "place_name": "New Bedford", "state_name": "Massachusetts", "state_code": "MA", "county_name": "Bristol", "county_code": 5.0, "community_name": null, "community_code": null, "latitude": 41.6913, "longitude": -70.9355, "accuracy": 4.0}, "02747": {"postal_code": "02747", "country_code": "US", "place_name": "North Dartmouth", "state_name": "Massachusetts", "state_code": "MA", "county_name": "Bristol", "county_code": 5.0, "community_name": null, "community_code": null, "latitude": 41.6338, "longitude": -70.9958, "accuracy": 4.0}, "02748": {"postal_code": "02748", "country_code": "US", "place_name": "South Dartmouth", "state_name": "Massachusetts", "state_code": "MA", "county_name": "Bristol", "county_code": 5.0, "community_name": null, "community_code": null, "latitude": 41.5665, "longitude": -70.9843, "accuracy": 4.0}, "02762": {"postal_code": "02762", "country_code": "US", "place_name": "Plainville", "state_name": "Massachusetts", "state_code": "MA", "county_name": "Norfolk", "county_code": 21.0, "community_name": null, "community_code": null, "latitude": 42.0124, "longitude": -71.3275, "accuracy": 4.0}, "02763": {"postal_code": "02763", "country_code": "US", "place_name": "Attleboro Falls", "state_name": "Massachusetts", "state_code": "MA", "county_name": "Bristol", "county_code": 5.0, "community_name": null, "community_code": null, "latitude": 41.9726, "longitude": -71.3082, "accuracy": 4.0}, "02766": {"postal_code": "02766", "country_code": "US", "place_name": "Norton", "state_name": "Massachusetts", "state_code": "MA", "county_name": "Bristol", "county_code": 5.0, "community_name": null, "community_code": null, "latitude": 41.9718, "longitude": -71.1894, "accuracy": 4.0}, "02767": {"postal_code": "02767", "country_code": "US", "place_name": "Raynham", "state_name": "Massachusetts", "state_code": "MA", "county_name": "Bristol", "county_code": 5.0, "community_name": null, "community_code": null, "latitude": 41.9324, "longitude": -71.0469, "accuracy": 4.0}, "02769": {"postal_code": "02769", "country_code": "US", "place_name": "Rehoboth", "state_name": "Massachusetts", "state_code": "MA", "county_name": "Bristol", "county_code": 5.0, "community_name": null, "community_code": null, "latitude": 41.8515, "longitude": -71.2545, "accuracy": 4.0}, "02770": {"postal_code": "02770", "country_code": "US", "place_name": "Rochester", "state_name": "Massachusetts", "state_code": "MA", "county_name": "Plymouth", "county_code": 23.0, "community_name": null, "community_code": null, "latitude": 41.7591, "longitude": -70.8523, "accuracy": 4.0}, "02771": {"postal_code": "02771", "country_code": "US", "place_name": "Seekonk", "state_name": "Massachusetts", "state_code": "MA", "county_name": "Bristol", "county_code": 5.0, "community_name": null, "community_code": null, "latitude": 41.8378, "longitude": -71.3224, "accuracy": 4.0}, "02777": {"postal_code": "02777", "country_code": "US", "place_name": "Swansea", "state_name": "Massachusetts", "state_code": "MA", "county_name": "Bristol", "county_code": 5.0, "community_name": null, "community_code": null, "latitude": 41.7473, "longitude": -71.2122, "accuracy": 4.0}, "02779": {"postal_code": "02779", "country_code": "US", "place_name": "Berkley", "state_name": "Massachusetts", "state_code": "MA", "county_name": "Bristol", "county_code": 5.0, "community_name": null, "community_code": null, "latitude": 41.8353, "longitude": -71.0765, "accuracy": 4.0}, "02780": {"postal_code": "02780", "country_code": "US", "place_name": "Taunton", "state_name": "Massachusetts", "state_code": "MA", "county_name": "Bristol", "county_code": 5.0, "community_name": null, "community_code": null, "latitude": 41.905, "longitude": -71.1026, "accuracy": 4.0}, "02790": {"postal_code": "02790", "country_code": "US", "place_name": "Westport", "state_name": "Massachusetts", "state_code": "MA", "county_name": "Bristol", "county_code": 5.0, "community_name": null, "community_code": null, "latitude": 41.6211, "longitude": -71.089, "accuracy": 1.0}, "02806": {"postal_code": "02806", "country_code": "US", "place_name": "Barrington", "state_name": "Rhode Island", "state_code": "RI", "county_name": "Bristol", "county_code": 1.0, "community_name": null, "community_code": null, "latitude": 41.7443, "longitude": -71.3175, "accuracy": 4.0}, "02809": {"postal_code": "02809", "country_code": "US", "place_name": "Bristol", "state_name": "Rhode Island", "state_code": "RI", "county_name": "Bristol", "county_code": 1.0, "community_name": null, "community_code": null, "latitude": 41.6825, "longitude": -71.2676, "accuracy": 4.0}, "02813": {"postal_code": "02813", "country_code": "US", "place_name": "Charlestown", "state_name": "Rhode Island", "state_code": "RI", "county_name": "Washington", "county_code": 9.0, "community_name": null, "community_code": null, "latitude": 41.4007, "longitude": -71.6615, "accuracy": 4.0}, "02816": {"postal_code": "02816", "country_code": "US", "place_name": "Coventry", "state_name": "Rhode Island", "state_code": "RI", "county_name": "Kent", "county_code": 3.0, "community_name": null, "community_code": null, "latitude": 41.6914, "longitude": -71.5768, "accuracy": 4.0}, "02818": {"postal_code": "02818", "country_code": "US", "place_name": "East Greenwich", "state_name": "Rhode Island", "state_code": "RI", "county_name": "Kent", "county_code": 3.0, "community_name": null, "community_code": null, "latitude": 41.6498, "longitude": -71.474, "accuracy": 4.0}, "02823": {"postal_code": "02823", "country_code": "US", "place_name": "Fiskeville", "state_name": "Rhode Island", "state_code": "RI", "county_name": "Providence", "county_code": 7.0, "community_name": null, "community_code": null, "latitude": 41.7312, "longitude": -71.5468, "accuracy": 4.0}, "02827": {"postal_code": "02827", "country_code": "US", "place_name": "Greene", "state_name": "Rhode Island", "state_code": "RI", "county_name": "Kent", "county_code": 3.0, "community_name": null, "community_code": null, "latitude": 41.7062, "longitude": -71.7356, "accuracy": 4.0}, "02828": {"postal_code": "02828", "country_code": "US", "place_name": "Greenville", "state_name": "Rhode Island", "state_code": "RI", "county_name": "Providence", "county_code": 7.0, "community_name": null, "community_code": null, "latitude": 41.8734, "longitude": -71.5569, "accuracy": 4.0}, "02830": {"postal_code": "02830", "country_code": "US", "place_name": "Harrisville", "state_name": "Rhode Island", "state_code": "RI", "county_name": "Providence", "county_code": 7.0, "community_name": null, "community_code": null, "latitude": 41.9764, "longitude": -71.6534, "accuracy": 4.0}, "02835": {"postal_code": "02835", "country_code": "US", "place_name": "Jamestown", "state_name": "Rhode Island", "state_code": "RI", "county_name": "Newport", "county_code": 5.0, "community_name": null, "community_code": null, "latitude": 41.5164, "longitude": -71.3761, "accuracy": 4.0}, "02838": {"postal_code": "02838", "country_code": "US", "place_name": "Manville", "state_name": "Rhode Island", "state_code": "RI", "county_name": "Providence", "county_code": 7.0, "community_name": null, "community_code": null, "latitude": 41.9689, "longitude": -71.4741, "accuracy": 4.0}, "02840": {"postal_code": "02840", "country_code": "US", "place_name": "Newport", "state_name": "Rhode Island", "state_code": "RI", "county_name": "Newport", "county_code": 5.0, "community_name": null, "community_code": null, "latitude": 41.4876, "longitude": -71.3271, "accuracy": 4.0}, "02842": {"postal_code": "02842", "country_code": "US", "place_name": "Middletown", "state_name": "Rhode Island", "state_code": "RI", "county_name": "Newport", "county_code": 5.0, "community_name": null, "community_code": null, "latitude": 41.5198, "longitude": -71.2731, "accuracy": 4.0}, "02852": {"postal_code": "02852", "country_code": "US", "place_name": "North Kingstown", "state_name": "Rhode Island", "state_code": "RI", "county_name": "Washington", "county_code": 9.0, "community_name": null, "community_code": null, "latitude": 41.5894, "longitude": -71.4625, "accuracy": 4.0}, "02857": {"postal_code": "02857", "country_code": "US", "place_name": "North Scituate", "state_name": "Rhode Island", "state_code": "RI", "county_name": "Providence", "county_code": 7.0, "community_name": null, "community_code": null, "latitude": 41.8439, "longitude": -71.6242, "accuracy": 4.0}, "02859": {"postal_code": "02859", "country_code": "US", "place_name": "Pascoag", "state_name": "Rhode Island", "state_code": "RI", "county_name": "Providence", "county_code": 7.0, "community_name": null, "community_code": null, "latitude": 41.9627, "longitude": -71.7099, "accuracy": 4.0}, "02861": {"postal_code": "02861", "country_code": "US", "place_name": "Pawtucket", "state_name": "Rhode Island", "state_code": "RI", "county_name": "Providence", "county_code": 7.0, "community_name": null, "community_code": null, "latitude": 41.8814, "longitude": -71.356, "accuracy": 4.0}, "02864": {"postal_code": "02864", "country_code": "US", "place_name": "Cumberland", "state_name": "Rhode Island", "state_code": "RI", "county_name": "Providence", "county_code": 7.0, "community_name": null, "community_code": null, "latitude": 41.9484, "longitude": -71.4154, "accuracy": 4.0}, "02865": {"postal_code": "02865", "country_code": "US", "place_name": "Lincoln", "state_name": "Rhode Island", "state_code": "RI", "county_name": "Providence", "county_code": 7.0, "community_name": null, "community_code": null, "latitude": 41.9089, "longitude": -71.4348, "accuracy": 4.0}, "02871": {"postal_code": "02871", "country_code": "US", "place_name": "Portsmouth", "state_name": "Rhode Island", "state_code": "RI", "county_name": "Newport", "county_code": 5.0, "community_name": null, "community_code": null, "latitude": 41.5944, "longitude": -71.252, "accuracy": 4.0}, "02874": {"postal_code": "02874", "country_code": "US", "place_name": "Saunderstown", "state_name": "Rhode Island", "state_code": "RI", "county_name": "Washington", "county_code": 9.0, "community_name": null, "community_code": null, "latitude": 41.5105, "longitude": -71.4427, "accuracy": 4.0}, "02876": {"postal_code": "02876", "country_code": "US", "place_name": "Slatersville", "state_name": "Rhode Island", "state_code": "RI", "county_name": "Providence", "county_code": 7.0, "community_name": null, "community_code": null, "latitude": 41.9984, "longitude": -71.5763, "accuracy": 4.0}, "02878": {"postal_code": "02878", "country_code": "US", "place_name": "Tiverton", "state_name": "Rhode Island", "state_code": "RI", "county_name": "Newport", "county_code": 5.0, "community_name": null, "community_code": null, "latitude": 41.6338, "longitude": -71.1808, "accuracy": 4.0}, "02879": {"postal_code": "02879", "country_code": "US", "place_name": "Wakefield", "state_name": "Rhode Island", "state_code": "RI", "county_name": "Washington", "county_code": 9.0, "community_name": null, "community_code": null, "latitude": 41.4437, "longitude": -71.5342, "accuracy": 4.0}, "02881": {"postal_code": "02881", "country_code": "US", "place_name": "Kingston", "state_name": "Rhode Island", "state_code": "RI", "county_name": "Washington", "county_code": 9.0, "community_name": null, "community_code": null, "latitude": 41.4803, "longitude": -71.5292, "accuracy": 4.0}, "02885": {"postal_code": "02885", "country_code": "US", "place_name": "Warren", "state_name": "Rhode Island", "state_code": "RI", "county_name": "Bristol", "county_code": 1.0, "community_name": null, "community_code": null, "latitude": 41.7256, "longitude": -71.2702, "accuracy": 4.0}, "02886": {"postal_code": "02886", "country_code": "US", "place_name": "Warwick", "state_name": "Rhode Island", "state_code": "RI", "county_name": "Kent", "county_code": 3.0, "community_name": null, "community_code": null, "latitude": 41.7026, "longitude": -71.4476, "accuracy": 4.0}, "02888": {"postal_code": "02888", "country_code": "US", "place_name": "Warwick", "state_name": "Rhode Island", "state_code": "RI", "county_name": "Kent", "county_code": 3.0, "community_name": null, "community_code": null, "latitude": 41.7494, "longitude": -71.4084, "accuracy": 4.0}, "02889": {"postal_code": "02889", "country_code": "US", "place_name": "Warwick", "state_name": "Rhode Island", "state_code": "RI", "county_name": "Kent", "county_code": 3.0, "community_name": null, "community_code": null, "latitude": 41.7141, "longitude": -71.3901, "accuracy": 4.0}, "02891": {"postal_code": "02891", "country_code": "US", "place_name": "Westerly", "state_name": "Rhode Island", "state_code": "RI", "county_name": "Washington", "county_code": 9.0, "community_name": null, "community_code": null, "latitude": 41.3691, "longitude": -71.8126, "accuracy": 4.0}, "02893": {"postal_code": "02893", "country_code": "US", "place_name": "West Warwick", "state_name": "Rhode Island", "state_code": "RI", "county_name": "Kent", "county_code": 3.0, "community_name": null, "community_code": null, "latitude": 41.7004, "longitude": -71.5183, "accuracy": 4.0}, "02895": {"postal_code": "02895", "country_code": "US", "place_name": "Woonsocket", "state_name": "Rhode Island", "state_code": "RI", "county_name": "Providence", "county_code": 7.0, "community_name": null, "community_code": null, "latitude": 41.9846, "longitude": -71.5194, "accuracy": 4.0}, "02896": {"postal_code": "02896", "country_code": "US", "place_name": "North Smithfield", "state_name": "Rhode Island", "state_code": "RI", "county_name": "Providence", "county_code": 7.0, "community_name": null, "community_code": null, "latitude": 41.9724, "longitude": -71.5508, "accuracy": 4.0}, "02903": {"postal_code": "02903", "country_code": "US", "place_name": "Providence", "state_name": "Rhode Island", "state_code": "RI", "county_name": "Providence", "county_code": 7.0, "community_name": null, "community_code": null, "latitude": 41.82, "longitude": -71.4158, "accuracy": 4.0}, "02904": {"postal_code": "02904", "country_code": "US", "place_name": "Providence", "state_name": "Rhode Island", "state_code": "RI", "county_name": "Providence", "county_code": 7.0, "community_name": null, "community_code": null, "latitude": 41.8541, "longitude": -71.4378, "accuracy": 4.0}, "02905": {"postal_code": "02905", "country_code": "US", "place_name": "Providence", "state_name": "Rhode Island", "state_code": "RI", "county_name": "Providence", "county_code": 7.0, "community_name": null, "community_code": null, "latitude": 41.7845, "longitude": -71.3959, "accuracy": 4.0}, "02906": {"postal_code": "02906", "country_code": "US", "place_name": "Providence", "state_name": "Rhode Island", "state_code": "RI", "county_name": "Providence", "county_code": 7.0, "community_name": null, "community_code": null, "latitude": 41.8351, "longitude": -71.3971, "accuracy": 4.0}, "02910": {"postal_code": "02910", "country_code": "US", "place_name": "Cranston", "state_name": "Rhode Island", "state_code": "RI", "county_name": "Providence", "county_code": 7.0, "community_name": null, "community_code": null, "latitude": 41.7766, "longitude": -71.4383, "accuracy": 4.0}, "02911": {"postal_code": "02911", "country_code": "US", "place_name": "North Providence", "state_name": "Rhode Island", "state_code": "RI", "county_name": "Providence", "county_code": 7.0, "community_name": null, "community_code": null, "latitude": 41.8547, "longitude": -71.4735, "accuracy": 4.0}, "02915": {"postal_code": "02915", "country_code": "US", "place_name": "Riverside", "state_name": "Rhode Island", "state_code": "RI", "county_name": "Providence", "county_code": 7.0, "community_name": null, "community_code": null, "latitude": 41.7723, "longitude": -71.3542, "accuracy": 4.0}, "02916": {"postal_code": "02916", "country_code": "US", "place_name": "Rumford", "state_name": "Rhode Island", "state_code": "RI", "county_name": "Providence", "county_code": 7.0, "community_name": null, "community_code": null, "latitude": 41.8425, "longitude": -71.3559, "accuracy": 4.0}, "02917": {"postal_code": "02917", "country_code": "US", "place_name": "Smithfield", "state_name": "Rhode Island", "state_code": "RI", "county_name": "Providence", "county_code": 7.0, "community_name": null, "community_code": null, "latitude": 41.8964, "longitude": -71.5207, "accuracy": 4.0}, "02919": {"postal_code": "02919", "country_code": "US", "place_name": "Johnston", "state_name": "Rhode Island", "state_code": "RI", "county_name": "Providence", "county_code": 7.0, "community_name": null, "community_code": null, "latitude": 41.8274, "longitude": -71.52, "accuracy": 4.0}, "02920": {"postal_code": "02920", "country_code": "US", "place_name": "Cranston", "state_name": "Rhode Island", "state_code": "RI", "county_name": "Providence", "county_code": 7.0, "community_name": null, "community_code": null, "latitude": 41.7716, "longitude": -71.4659, "accuracy": 4.0}, "03031": {"postal_code": "03031", "country_code": "US", "place_name": "Amherst", "state_name": "New Hampshire", "state_code": "NH", "county_name": "Hillsborough", "county_code": 11.0, "community_name": null, "community_code": null, "latitude": 42.8569, "longitude": -71.6075, "accuracy": 4.0}, "03034": {"postal_code": "03034", "country_code": "US", "place_name": "Candia", "state_name": "New Hampshire", "state_code": "NH", "county_name": "Rockingham", "county_code": 15.0, "community_name": null, "community_code": null, "latitude": 43.0585, "longitude": -71.3049, "accuracy": 4.0}, "03036": {"postal_code": "03036", "country_code": "US", "place_name": "Chester", "state_name": "New Hampshire", "state_code": "NH", "county_name": "Rockingham", "county_code": 15.0, "community_name": null, "community_code": null, "latitude": 42.9678, "longitude": -71.245, "accuracy": 4.0}, "03037": {"postal_code": "03037", "country_code": "US", "place_name": "Deerfield", "state_name": "New Hampshire", "state_code": "NH", "county_name": "Rockingham", "county_code": 15.0, "community_name": null, "community_code": null, "latitude": 43.1378, "longitude": -71.2513, "accuracy": 4.0},